provider_id,hospital_name,address,city,state,zip,county,Phone Number,Condition,Measure ID,Measure Name,score,Sample,Footnote,Measure Start Date,Measure End Date,longitude,latitude,state_name,population,poverty,percent,poverty_percent,original_county
010001,SOUTHEAST ALABAMA MEDICAL CENTER,1108 ROSS CLARK CIRCLE,DOTHAN,AL,36301,HOUSTON,3347938701.0,Emergency Department,OP_20,Door to diagnostic eval,65.0,377,NA,01/01/2015,12/31/2015,-85.4045,31.180076,alabama,104110,20643.0,20.1,0.2,Houston County
010005,MARSHALL MEDICAL CENTER SOUTH,2505 U S HIGHWAY 431 NORTH,BOAZ,AL,35957,MARSHALL,2565938310.0,Emergency Department,OP_20,Door to diagnostic eval,27.0,1407,NA,01/01/2015,12/31/2015,-86.1728,34.203621,alabama,94356,20528.0,22.0,0.2,Marshall County
010006,ELIZA COFFEE MEMORIAL HOSPITAL,205 MARENGO STREET,FLORENCE,AL,35631,LAUDERDALE,2567688400.0,Emergency Department,OP_20,Door to diagnostic eval,10.0,379,NA,01/01/2015,12/31/2015,-87.706859,34.869964,alabama,93063,17041.0,18.7,0.2,Lauderdale County
010007,MIZELL MEMORIAL HOSPITAL,702 N MAIN ST,OPP,AL,36467,COVINGTON,3344933541.0,Emergency Department,OP_20,Door to diagnostic eval,38.0,639,NA,01/01/2015,12/31/2015,-86.25484,31.280048,alabama,37888,7778.0,20.8,0.2,Covington County
010008,CRENSHAW COMMUNITY HOSPITAL,101 HOSPITAL CIRCLE,LUVERNE,AL,36049,CRENSHAW,3343353374.0,Emergency Department,OP_20,Door to diagnostic eval,27.0,384,NA,01/01/2015,12/31/2015,-86.26946,31.737407,alabama,13948,2929.0,21.2,0.2,Crenshaw County
010011,ST VINCENT'S EAST,50 MEDICAL PARK EAST DRIVE,BIRMINGHAM,AL,35235,JEFFERSON,2058383122.0,Emergency Department,OP_20,Door to diagnostic eval,54.0,366,NA,01/01/2015,12/31/2015,-86.65507,33.609779,alabama,660368,125778.0,19.5,0.2,Jefferson County
010012,DEKALB REGIONAL MEDICAL CENTER,200 MED CENTER DRIVE,FORT PAYNE,AL,35968,DEKALB,2568453150.0,Emergency Department,OP_20,Door to diagnostic eval,34.0,426,NA,01/01/2015,12/31/2015,-85.76744,34.460537,alabama,71012,16856.0,24.0,0.2,DeKalb County
010016,SHELBY BAPTIST MEDICAL CENTER,1000 FIRST STREET NORTH,ALABASTER,AL,35007,SHELBY,2056208100.0,Emergency Department,OP_20,Door to diagnostic eval,30.0,408,NA,01/01/2015,12/31/2015,-86.80871,33.232422,alabama,206199,19610.0,9.6,0.1,Shelby County
010018,CALLAHAN EYE HOSPITAL,1720 UNIVERSITY BLVD,BIRMINGHAM,AL,35233,JEFFERSON,2053258100.0,Emergency Department,OP_20,Door to diagnostic eval,20.0,367,NA,01/01/2015,12/31/2015,-86.7997,33.509623,alabama,660368,125778.0,19.5,0.2,Jefferson County
010019,HELEN KELLER MEMORIAL HOSPITAL,1300 SOUTH MONTGOMERY AVENUE,SHEFFIELD,AL,35660,COLBERT,2563864556.0,Emergency Department,OP_20,Door to diagnostic eval,23.0,384,NA,01/01/2015,12/31/2015,-87.69317,34.759738,alabama,54480,9022.0,16.7,0.2,Colbert County
010021,DALE MEDICAL CENTER,126 HOSPITAL AVE,OZARK,AL,36360,DALE,3347742601.0,Emergency Department,OP_20,Door to diagnostic eval,20.0,489,NA,01/01/2015,12/31/2015,-85.62908,31.447119,alabama,49501,10865.0,22.4,0.2,Dale County
010022,CHEROKEE MEDICAL CENTER,400 NORTHWOOD DR,CENTRE,AL,35960,CHEROKEE,2569275531.0,Emergency Department,OP_20,Door to diagnostic eval,19.0,431,NA,01/01/2015,12/31/2015,-85.60472,34.141067,alabama,25995,4768.0,18.6,0.2,Cherokee County
010023,BAPTIST MEDICAL CENTER SOUTH,2105 EAST SOUTH BOULEVARD,MONTGOMERY,AL,36116,MONTGOMERY,3342882100.0,Emergency Department,OP_20,Door to diagnostic eval,37.0,480,NA,01/01/2015,12/31/2015,-86.23672,32.31324,alabama,226389,48844.0,22.5,0.2,Montgomery County
010024,JACKSON HOSPITAL & CLINIC INC,1725 PINE STREET,MONTGOMERY,AL,36106,MONTGOMERY,3342938e3,Emergency Department,OP_20,Door to diagnostic eval,50.0,2322,NA,01/01/2015,12/31/2015,-86.27161,32.354888,alabama,226389,48844.0,22.5,0.2,Montgomery County
010029,EAST ALABAMA MEDICAL CENTER,2000 PEPPERELL PARKWAY,OPELIKA,AL,36801,LEE,3347493411.0,Emergency Department,OP_20,Door to diagnostic eval,42.0,973,NA,01/01/2015,12/31/2015,-85.39917,32.660497,alabama,154426,37752.0,25.2,0.2,Lee County
010032,WEDOWEE HOSPITAL,209 NORTH MAIN STREET,WEDOWEE,AL,36278,RANDOLPH,2563572111.0,Emergency Department,OP_20,Door to diagnostic eval,27.0,448,NA,01/01/2015,12/31/2015,-85.509,33.338853,alabama,22486,4512.0,20.4,0.2,Randolph County
010033,UNIVERSITY OF ALABAMA HOSPITAL,619 SOUTH 19TH STREET,BIRMINGHAM,AL,35233,JEFFERSON,2059344011.0,Emergency Department,OP_20,Door to diagnostic eval,36.0,351,NA,01/01/2015,12/31/2015,-86.7997,33.509623,alabama,660368,125778.0,19.5,0.2,Jefferson County
010034,COMMUNITY HOSPITAL INC,805 FRIENDSHIP ROAD,TALLASSEE,AL,36078,ELMORE,3342836541.0,Emergency Department,OP_20,Door to diagnostic eval,30.0,394,NA,01/01/2015,12/31/2015,-85.9136,32.553036,alabama,81022,10867.0,14.4,0.1,Elmore County
010035,CULLMAN REGIONAL MEDICAL CENTER,1912 ALABAMA HIGHWAY 157,CULLMAN,AL,35058,CULLMAN,2567372e3,Emergency Department,OP_20,Door to diagnostic eval,25.0,598,NA,01/01/2015,12/31/2015,-86.7562,34.223732,alabama,81221,13809.0,17.2,0.2,Cullman County
010036,ANDALUSIA REGIONAL HOSPITAL,849 SOUTH THREE NOTCH STREET,ANDALUSIA,AL,36420,COVINGTON,3342228466.0,Emergency Department,OP_20,Door to diagnostic eval,4.0,445,NA,01/01/2015,12/31/2015,-86.48699,31.279043,alabama,37888,7778.0,20.8,0.2,Covington County
010038,STRINGFELLOW MEMORIAL HOSPITAL,301 EAST 18TH ST,ANNISTON,AL,36201,CALHOUN,2562358900.0,Emergency Department,OP_20,Door to diagnostic eval,16.0,431,NA,01/01/2015,12/31/2015,-85.85178,33.658803,alabama,115993,23114.0,20.5,0.2,Calhoun County
010039,HUNTSVILLE HOSPITAL,101 SIVLEY RD,HUNTSVILLE,AL,35801,MADISON,2562651e3,Emergency Department,OP_20,Door to diagnostic eval,64.0,363,NA,01/01/2015,12/31/2015,-86.57316,34.72879,alabama,350112,48750.0,14.2,0.1,Madison County
010040,GADSDEN REGIONAL MEDICAL CENTER,1007 GOODYEAR AVENUE,GADSDEN,AL,35903,ETOWAH,2564944e3,Emergency Department,OP_20,Door to diagnostic eval,45.0,385,NA,01/01/2015,12/31/2015,-85.92496,33.996698,alabama,103452,19291.0,19.0,0.2,Etowah County
010044,MARION REGIONAL MEDICAL CENTER,1256 MILITARY STREET SOUTH,HAMILTON,AL,35570,MARION,2059216200.0,Emergency Department,OP_20,Door to diagnostic eval,27.0,460,NA,01/01/2015,12/31/2015,-88.00384,34.149717,alabama,30246,5925.0,20.2,0.2,Marion County
010045,FAYETTE MEDICAL CENTER,1653 TEMPLE AVENUE NORTH,FAYETTE,AL,35555,FAYETTE,2059325966.0,Emergency Department,OP_20,Door to diagnostic eval,10.0,399,NA,01/01/2015,12/31/2015,-87.83026,33.681768,alabama,16842,3425.0,20.6,0.2,Fayette County
010046,RIVERVIEW REGIONAL MEDICAL CENTER,600 SOUTH THIRD STREET,GADSDEN,AL,35901,ETOWAH,2565435200.0,Emergency Department,OP_20,Door to diagnostic eval,24.0,733,NA,01/01/2015,12/31/2015,-85.99282,34.016747,alabama,103452,19291.0,19.0,0.2,Etowah County
010047,GEORGIANA MEDICAL CENTER,515 N MIRANDA AVENUE,GEORGIANA,AL,36033,BUTLER,3343762205.0,Emergency Department,OP_20,Door to diagnostic eval,41.0,420,NA,01/01/2015,12/31/2015,-86.76737,31.655458,alabama,20276,4988.0,25.0,0.2,Butler County
010049,MEDICAL CENTER ENTERPRISE,400 N EDWARDS STREET,ENTERPRISE,AL,36330,COFFEE,3343470584.0,Emergency Department,OP_20,Door to diagnostic eval,23.0,418,NA,01/01/2015,12/31/2015,-85.84117,31.32579,alabama,50831,8407.0,16.8,0.2,Coffee County
010051,GREENE COUNTY HOSPITAL,509 WILSON AVENUE,EUTAW,AL,35462,GREENE,2053723388.0,Emergency Department,OP_20,Door to diagnostic eval,58.0,350,NA,01/01/2015,12/31/2015,-87.93837,32.931143,alabama,8553,2819.0,33.2,0.3,Greene County
010052,LAKE MARTIN COMMUNITY HOSPITAL,201 MARIARDEN ROAD,DADEVILLE,AL,36853,TALLAPOOSA,2568257821.0,Emergency Department,OP_20,Door to diagnostic eval,31.0,360,NA,01/01/2015,12/31/2015,-85.79955,32.787441,alabama,41112,8633.0,21.3,0.2,Tallapoosa County
010055,FLOWERS HOSPITAL,4370 WEST MAIN STREET,DOTHAN,AL,36305,HOUSTON,3347935e3,Emergency Department,OP_20,Door to diagnostic eval,25.0,391,NA,01/01/2015,12/31/2015,-85.47402,31.214832,alabama,104110,20643.0,20.1,0.2,Houston County
010056,ST VINCENT'S BIRMINGHAM,810 ST VINCENT'S DRIVE,BIRMINGHAM,AL,35205,JEFFERSON,2059397e3,Emergency Department,OP_20,Door to diagnostic eval,38.0,384,NA,01/01/2015,12/31/2015,-86.8057,33.497055,alabama,660368,125778.0,19.5,0.2,Jefferson County
010058,BIBB MEDICAL CENTER,208 PIERSON AVE,CENTREVILLE,AL,35042,BIBB,2059264881.0,Emergency Department,OP_20,Door to diagnostic eval,24.0,399,NA,01/01/2015,12/31/2015,-87.13867,32.963486,alabama,22549,3666.0,18.1,0.2,Bibb County
010059,LAWRENCE MEDICAL CENTER,202 HOSPITAL STREET,MOULTON,AL,35650,LAWRENCE,2569742200.0,Emergency Department,OP_20,Door to diagnostic eval,19.0,477,NA,01/01/2015,12/31/2015,-87.27802,34.496476,alabama,33426,5499.0,16.6,0.2,Lawrence County
010061,HIGHLANDS MEDICAL CENTER,380 WOODS COVE ROAD,SCOTTSBORO,AL,35768,JACKSON,2562594444.0,Emergency Department,OP_20,Door to diagnostic eval,36.0,776,NA,01/01/2015,12/31/2015,-86.08387,34.712327,alabama,52631,11440.0,22.0,0.2,Jackson County
010062,WIREGRASS MEDICAL CENTER,1200 W MAPLE AVENUE,GENEVA,AL,36340,GENEVA,3346843655.0,Emergency Department,OP_20,Door to diagnostic eval,31.0,386,NA,01/01/2015,12/31/2015,-85.87941,31.043454,alabama,26707,6303.0,23.9,0.2,Geneva County
010065,RUSSELL HOSPITAL,3316 HIGHWAY 280,ALEXANDER CITY,AL,35010,TALLAPOOSA,2563297100.0,Emergency Department,OP_20,Door to diagnostic eval,19.0,826,NA,01/01/2015,12/31/2015,-85.92669,32.903432,alabama,41112,8633.0,21.3,0.2,Tallapoosa County
010069,MEDICAL CENTER BARBOUR,820 W WASHINGTON ST,EUFAULA,AL,36027,BARBOUR,3346887271.0,Emergency Department,OP_20,Door to diagnostic eval,9.0,635,NA,01/01/2015,12/31/2015,-85.17362,31.876168,alabama,26815,5943.0,25.4,0.2,Barbour County
010073,CLAY COUNTY HOSPITAL,83825 HIGHWAY 9    P O BOX 1270,ASHLAND,AL,36251,CLAY,2563542131.0,Emergency Department,OP_20,Door to diagnostic eval,34.0,504,NA,01/01/2015,12/31/2015,-85.84503,33.243964,alabama,13538,2592.0,19.5,0.2,Clay County
010078,NORTHEAST ALABAMA REGIONAL MED CENTER,400 EAST 10TH STREET,ANNISTON,AL,36207,CALHOUN,2562355121.0,Emergency Department,OP_20,Door to diagnostic eval,45.0,1164,NA,01/01/2015,12/31/2015,-85.75895,33.651673,alabama,115993,23114.0,20.5,0.2,Calhoun County
010079,ATHENS LIMESTONE HOSPITAL,700 WEST MARKET STREET,ATHENS,AL,35611,LIMESTONE,2562339292.0,Emergency Department,OP_20,Door to diagnostic eval,29.0,485,NA,01/01/2015,12/31/2015,-87.02767,34.784028,alabama,90612,11912.0,13.6,0.1,Limestone County
010083,SOUTH BALDWIN REGIONAL MEDICAL CENTER,1613 NORTH MCKENZIE STREET,FOLEY,AL,36535,BALDWIN,2519493400.0,Emergency Department,OP_20,Door to diagnostic eval,30.0,417,NA,01/01/2015,12/31/2015,-87.69616,30.396876,alabama,199713,25696.0,13.0,0.1,Baldwin County
010085,DECATUR MORGAN HOSPITAL-DECATUR CAMPUS,1201 7TH STREET SE,DECATUR,AL,35601,MORGAN,2563412e3,Emergency Department,OP_20,Door to diagnostic eval,36.0,2784,NA,01/01/2015,12/31/2015,-86.98786,34.595332,alabama,119656,17665.0,15.0,0.1,Morgan County
010086,NORTHWEST MEDICAL CENTER,1530 U S HIGHWAY 43,WINFIELD,AL,35594,MARION,2054877736.0,Emergency Department,OP_20,Door to diagnostic eval,10.0,403,NA,01/01/2015,12/31/2015,-87.78949,33.925454,alabama,30246,5925.0,20.2,0.2,Marion County
010087,UNIVERSITY OF SOUTH ALABAMA MEDICAL CENTER,2451 FILLINGIM STREET,MOBILE,AL,36617,MOBILE,2514717110.0,Emergency Department,OP_20,Door to diagnostic eval,70.0,367,NA,01/01/2015,12/31/2015,-88.09609,30.717539,alabama,414926,80016.0,19.6,0.2,Mobile County
010089,WALKER BAPTIST MEDICAL CENTER,3400 HIGHWAY 78 EAST,JASPER,AL,35502,WALKER,2053874e3,Emergency Department,OP_20,Door to diagnostic eval,20.0,408,NA,01/01/2015,12/31/2015,-87.293888,33.901993,alabama,65567,15161.0,23.5,0.2,Walker County
010090,PROVIDENCE HOSPITAL,6801 AIRPORT BOULEVARD,MOBILE,AL,36608,MOBILE,2516331e3,Emergency Department,OP_20,Door to diagnostic eval,28.0,410,NA,01/01/2015,12/31/2015,-88.19701,30.69044,alabama,414926,80016.0,19.6,0.2,Mobile County
010091,GROVE HILL MEMORIAL HOSPITAL,295 JACKSON HWY S,GROVE HILL,AL,36451,CLARKE,2512753191.0,Emergency Department,OP_20,Door to diagnostic eval,33.0,405,NA,01/01/2015,12/31/2015,-87.77773,31.704736,alabama,24847,6137.0,24.9,0.2,Clarke County
010092,D C H REGIONAL MEDICAL CENTER,809 UNIVERSITY BOULEVARD EAST,TUSCALOOSA,AL,35401,TUSCALOOSA,2057597111.0,Emergency Department,OP_20,Door to diagnostic eval,45.0,400,NA,01/01/2015,12/31/2015,-87.56843,33.193818,alabama,202519,34553.0,18.0,0.2,Tuscaloosa County
010095,HALE COUNTY HOSPITAL,508 GREEN STREET,GREENSBORO,AL,36744,HALE,3346243024.0,Emergency Department,OP_20,Door to diagnostic eval,35.0,371,NA,01/01/2015,12/31/2015,-87.60177,32.703529,alabama,15131,4182.0,28.1,0.3,Hale County
010097,ELMORE COMMUNITY HOSPITAL,500 HOSPITAL DRIVE,WETUMPKA,AL,36092,ELMORE,3345674311.0,Emergency Department,OP_20,Door to diagnostic eval,20.0,378,NA,01/01/2015,12/31/2015,-86.21902,32.592889,alabama,81022,10867.0,14.4,0.1,Elmore County
010099,D W MCMILLAN MEMORIAL HOSPITAL,1301 BELLEVILLE AVENUE,BREWTON,AL,36426,ESCAMBIA,2518678061.0,Emergency Department,OP_20,Door to diagnostic eval,32.0,458,NA,01/01/2015,12/31/2015,-87.10173,31.129008,alabama,37784,8639.0,25.1,0.2,Escambia County
010100,THOMAS HOSPITAL,750 MORPHY AVENUE,FAIRHOPE,AL,36532,BALDWIN,2519282375.0,Emergency Department,OP_20,Door to diagnostic eval,36.0,406,NA,01/01/2015,12/31/2015,-87.88559,30.512458,alabama,199713,25696.0,13.0,0.1,Baldwin County
010101,CITIZENS BAPTIST MEDICAL CENTER,604 STONE AVENUE,TALLADEGA,AL,35161,TALLADEGA,2567614542.0,Emergency Department,OP_20,Door to diagnostic eval,26.0,416,NA,01/01/2015,12/31/2015,-86.102782,33.420206,alabama,81258,17499.0,22.5,0.2,Talladega County
010102,J PAUL JONES HOSPITAL,317 MCWILLIAMS AVENUE,CAMDEN,AL,36726,WILCOX,3346824131.0,Emergency Department,OP_20,Door to diagnostic eval,30.0,289,NA,01/01/2015,12/31/2015,-87.25911,32.008444,alabama,11052,3697.0,33.7,0.3,Wilcox County
010103,BAPTIST MEDICAL CENTER-PRINCETON,701 PRINCETON AVENUE SOUTHWEST,BIRMINGHAM,AL,35211,JEFFERSON,2057833800.0,Emergency Department,OP_20,Door to diagnostic eval,36.0,412,NA,01/01/2015,12/31/2015,-86.85878,33.479306,alabama,660368,125778.0,19.5,0.2,Jefferson County
010104,GRANDVIEW MEDICAL CENTER,3690 GRANDVIEW PARKWAY,BIRMINGHAM,AL,35243,JEFFERSON,2055921e3,Emergency Department,OP_20,Door to diagnostic eval,19.0,425,NA,01/01/2015,12/31/2015,-86.74586,33.437667,alabama,660368,125778.0,19.5,0.2,Jefferson County
010108,PRATTVILLE BAPTIST HOSPITAL,124 S MEMORIAL DR,PRATTVILLE,AL,36067,AUTAUGA,3343614267.0,Emergency Department,OP_20,Door to diagnostic eval,43.0,534,NA,01/01/2015,12/31/2015,-86.52962,32.488113,alabama,55290,7204.0,13.1,0.1,Autauga County
010109,PICKENS COUNTY MEDICAL CENTER,241 ROBERT K WILSON DRIVE,CARROLLTON,AL,35447,PICKENS,2053678111.0,Emergency Department,OP_20,Door to diagnostic eval,19.0,371,NA,01/01/2015,12/31/2015,-88.16866,33.254197,alabama,20339,4667.0,25.0,0.2,Pickens County
010110,BULLOCK COUNTY HOSPITAL,102 WEST CONECUH AVENUE,UNION SPRINGS,AL,36089,BULLOCK,3347382140.0,Emergency Department,OP_20,Door to diagnostic eval,32.0,387,NA,01/01/2015,12/31/2015,-85.70998,32.145437,alabama,10829,3179.0,35.1,0.3,Bullock County
010112,BRYAN W. WHITFIELD MEMORIAL HOSPITAL,105 HIGHWAY 80 EAST,DEMOPOLIS,AL,36732,MARENGO,3342894e3,Emergency Department,OP_20,Door to diagnostic eval,41.0,356,NA,01/01/2015,12/31/2015,-87.84521,32.495484,alabama,20136,5071.0,25.6,0.3,Marengo County
010113,MOBILE INFIRMARY MEDICAL CENTER,5 MOBILE INFIRMARY CIRCLE,MOBILE,AL,36652,MOBILE,2514354700.0,Emergency Department,OP_20,Door to diagnostic eval,14.0,403,NA,01/01/2015,12/31/2015,-88.177975,30.658865,alabama,414926,80016.0,19.6,0.2,Mobile County
010114,"MEDICAL WEST, AN AFFILIATE OF UAB HEALTH SYSTEM",995 9TH AVENUE SOUTHWEST,BESSEMER,AL,35021,JEFFERSON,2054817e3,Emergency Department,OP_20,Door to diagnostic eval,22.0,589,NA,01/01/2015,12/31/2015,-86.929208,33.544622,alabama,660368,125778.0,19.5,0.2,Jefferson County
010118,VAUGHAN REGIONAL MEDICAL CENTER PARKWAY CAMPUS,1015 MEDICAL CENTER PARKWAY,SELMA,AL,36701,DALLAS,3344184100.0,Emergency Department,OP_20,Door to diagnostic eval,20.0,436,NA,01/01/2015,12/31/2015,-87.03809,32.429066,alabama,41662,14470.0,35.2,0.3,Dallas County
010120,MONROE COUNTY HOSPITAL,"2016 SOUTH ALABAMA AVENUE, BOX 886",MONROEVILLE,AL,36460,MONROE,2515753111.0,Emergency Department,OP_20,Door to diagnostic eval,30.0,350,NA,01/01/2015,12/31/2015,-87.32416,31.509039,alabama,21897,5484.0,25.3,0.3,Monroe County
010125,LAKELAND COMMUNITY HOSPITAL,42024 HIGHWAY 195 E,HALEYVILLE,AL,35565,WINSTON,2054857117.0,Emergency Department,OP_20,Door to diagnostic eval,5.0,402,NA,01/01/2015,12/31/2015,-87.6118,34.225425,alabama,24101,4796.0,20.1,0.2,Winston County
010126,TROY REGIONAL MEDICAL CENTER,1330 HIGHWAY 231 SOUTH,TROY,AL,36081,PIKE,3346705e3,Emergency Department,OP_20,Door to diagnostic eval,36.0,429,NA,01/01/2015,12/31/2015,-85.92314,31.852825,alabama,33090,8237.0,26.4,0.2,Pike County
010128,JACKSON MEDICAL CENTER,220 HOSPITAL DRIVE,JACKSON,AL,36545,CLARKE,2512469021.0,Emergency Department,OP_20,Door to diagnostic eval,50.0,353,NA,01/01/2015,12/31/2015,-87.88346,31.508231,alabama,24847,6137.0,24.9,0.2,Clarke County
010129,NORTH BALDWIN INFIRMARY,1815 HAND AVENUE,BAY MINETTE,AL,36507,BALDWIN,2519375521.0,Emergency Department,OP_20,Door to diagnostic eval,48.0,404,NA,01/01/2015,12/31/2015,-87.76592,30.875697,alabama,199713,25696.0,13.0,0.1,Baldwin County
010130,ST VINCENT'S ST CLAIR,7063 VETERANS PARKWAY,PELL CITY,AL,35125,SAINTCLAIR,2053383301.0,Emergency Department,OP_20,Door to diagnostic eval,31.0,368,NA,01/01/2015,12/31/2015,-86.28912,33.606663,alabama,86561,12071.0,14.3,0.1,St. Clair County
010131,CRESTWOOD MEDICAL CENTER,ONE HOSPITAL DR SE,HUNTSVILLE,AL,35801,MADISON,2568823100.0,Emergency Department,OP_20,Door to diagnostic eval,30.0,426,NA,01/01/2015,12/31/2015,-86.57316,34.72879,alabama,350112,48750.0,14.2,0.1,Madison County
010138,HILL HOSPITAL OF SUMTER COUNTY,751 DERBY DRIVE,YORK,AL,36925,SUMTER,2053925263.0,Emergency Department,OP_20,Door to diagnostic eval,29.0,252,3 - Results are based on a shorter time period than required.,01/01/2015,12/31/2015,-88.2679,32.487726,alabama,13243,4692.0,38.1,0.4,Sumter County
010139,BROOKWOOD MEDICAL CENTER,2010 BROOKWOOD MEDICAL CENTER DRIVE,BIRMINGHAM,AL,35209,JEFFERSON,2058771e3,Emergency Department,OP_20,Door to diagnostic eval,31.0,441,NA,01/01/2015,12/31/2015,-86.80814,33.468306,alabama,660368,125778.0,19.5,0.2,Jefferson County
010144,SPRINGHILL MEMORIAL HOSPITAL,3719 DAUPHIN STREET,MOBILE,AL,36608,MOBILE,2513449630.0,Emergency Department,OP_20,Door to diagnostic eval,34.0,680,NA,01/01/2015,12/31/2015,-88.19701,30.69044,alabama,414926,80016.0,19.6,0.2,Mobile County
010146,RMC JACKSONVILLE,1701 SOUTH PELHAM ROAD,JACKSONVILLE,AL,36265,CALHOUN,2567824538.0,Emergency Department,OP_20,Door to diagnostic eval,55.0,504,NA,01/01/2015,12/31/2015,-85.77037,33.824496,alabama,115993,23114.0,20.5,0.2,Calhoun County
010148,EVERGREEN MEDICAL CENTER,101 CRESTVIEW AVENUE,EVERGREEN,AL,36401,CONECUH,2515782480.0,Emergency Department,OP_20,Door to diagnostic eval,51.0,456,NA,01/01/2015,12/31/2015,-86.96271,31.461019,alabama,12662,3846.0,30.6,0.3,Conecuh County
010149,BAPTIST MEDICAL CENTER EAST,400 TAYLOR ROAD,MONTGOMERY,AL,36117,MONTGOMERY,3342448330.0,Emergency Department,OP_20,Door to diagnostic eval,50.0,403,NA,01/01/2015,12/31/2015,-86.16443,32.373714,alabama,226389,48844.0,22.5,0.2,Montgomery County
010150,L V STABLER MEMORIAL HOSPITAL,29 L V STABLER DRIVE,GREENVILLE,AL,36037,BUTLER,3343822200.0,Emergency Department,OP_20,Door to diagnostic eval,24.0,430,NA,01/01/2015,12/31/2015,-86.60591,31.8007,alabama,20276,4988.0,25.0,0.2,Butler County
010157,SHOALS HOSPITAL,201 WEST AVALON AVENUE,MUSCLE SHOALS,AL,35661,COLBERT,2563861601.0,Emergency Department,OP_20,Door to diagnostic eval,22.0,514,NA,01/01/2015,12/31/2015,-87.62705,34.759947,alabama,54480,9022.0,16.7,0.2,Colbert County
010158,RUSSELLVILLE HOSPITAL,15155 HIGHWAY 43,RUSSELLVILLE,AL,35653,FRANKLIN,2563321611.0,Emergency Department,OP_20,Door to diagnostic eval,9.0,412,NA,01/01/2015,12/31/2015,-87.78077,34.519453,alabama,31592,7222.0,23.1,0.2,Franklin County
010164,COOSA VALLEY MEDICAL CENTER,315 W HICKORY ST,SYLACAUGA,AL,35150,TALLADEGA,2562495e3,Emergency Department,OP_20,Door to diagnostic eval,30.0,383,NA,01/01/2015,12/31/2015,-86.25105,33.185782,alabama,81258,17499.0,22.5,0.2,Talladega County
010168,JACK HUGHSTON MEMORIAL HOSPITAL,4401 RIVER CHASE DRIVE,PHENIX CITY,AL,36867,RUSSELL,3347323e3,Emergency Department,OP_20,Door to diagnostic eval,38.0,442,NA,01/01/2015,12/31/2015,-85.01943,32.492304,alabama,59712,12309.0,20.9,0.2,Russell County
010169,ATMORE COMMUNITY HOSPITAL,401 MEDICAL PARK DRIVE,ATMORE,AL,36502,ESCAMBIA,2513682500.0,Emergency Department,OP_20,Door to diagnostic eval,46.0,410,NA,01/01/2015,12/31/2015,-87.49715,31.090528,alabama,37784,8639.0,25.1,0.2,Escambia County
011300,WASHINGTON COUNTY HOSPITAL,14600 ST. STEPHENS AVENUE,CHATOM,AL,36518,WASHINGTON,2518472223.0,Emergency Department,OP_20,Door to diagnostic eval,19.0,443,NA,01/01/2015,12/31/2015,-88.26781,31.463383,alabama,16863,3077.0,18.5,0.2,Washington County
011302,RED BAY HOSPITAL,211 HOSPITAL ROAD,RED BAY,AL,35582,FRANKLIN,2563569532.0,Emergency Department,OP_20,Door to diagnostic eval,NA,Not Available,5 - Results are not available for this reporting period.,01/01/2015,12/31/2015,-88.12041,34.448328,alabama,31592,7222.0,23.1,0.2,Franklin County
011304,CHOCTAW GENERAL HOSPITAL,"401 VANITY FAIR LANE, PO BOX 618",BUTLER,AL,36904,CHOCTAW,2054599100.0,Emergency Department,OP_20,Door to diagnostic eval,NA,Not Available,5 - Results are not available for this reporting period.,01/01/2015,12/31/2015,-88.22647,32.097363,alabama,13289,3293.0,25.0,0.2,Choctaw County
011305,ST VINCENTS BLOUNT,150 GILBREATH DRIVE,ONEONTA,AL,35121,BLOUNT,2052743e3,Emergency Department,OP_20,Door to diagnostic eval,42.0,372,NA,01/01/2015,12/31/2015,-86.45813,33.944897,alabama,57658,1e4,17.5,0.2,Blount County
013300,CHILDREN'S HOSPITAL OF ALABAMA,1600 SEVENTH AVENUE SOUTH,BIRMINGHAM,AL,35233,JEFFERSON,2059399100.0,Emergency Department,OP_20,Door to diagnostic eval,NA,Not Available,19 - Data are shown only for hospitals that participate in the Inpatient Quality Reporting (IQR) and Outpatient Quality Reporting (OQR) programs.,01/01/2015,12/31/2015,-86.7997,33.509623,alabama,660368,125778.0,19.5,0.2,Jefferson County
013301,UNIVERSITY OF S A CHILDREN'S AND WOMEN'S HOS,1700 CENTER STREET,MOBILE,AL,36604,MOBILE,2514151e3,Emergency Department,OP_20,Door to diagnostic eval,NA,Not Available,5 - Results are not available for this reporting period.,01/01/2015,12/31/2015,-88.06676,30.68164,alabama,414926,80016.0,19.6,0.2,Mobile County
030001,ABRAZO MARYVALE CAMPUS,5102 WEST CAMPBELL AVENUE,PHOENIX,AZ,85031,MARICOPA,6238485e3,Emergency Department,OP_20,Door to diagnostic eval,23.0,268,NA,01/01/2015,12/31/2015,-112.17108,33.493496,arizona,4090022,687643.0,17.1,0.2,Maricopa County
030002,BANNER - UNIVERSITY MEDICAL CENTER PHOENIX,1111 EAST MCDOWELL ROAD,PHOENIX,AZ,85006,MARICOPA,6022392e3,Emergency Department,OP_20,Door to diagnostic eval,32.0,391,NA,01/01/2015,12/31/2015,-112.04875,33.466392,arizona,4090022,687643.0,17.1,0.2,Maricopa County
030006,TUCSON MEDICAL CENTER,5301 EAST GRANT ROAD,TUCSON,AZ,85712,PIMA,5203275461.0,Emergency Department,OP_20,Door to diagnostic eval,53.0,1785,NA,01/01/2015,12/31/2015,-110.8878,32.249551,arizona,1004244,183590.0,18.7,0.2,Pima County
030007,VERDE VALLEY MEDICAL CENTER,269 SOUTH CANDY LANE,COTTONWOOD,AZ,86326,YAVAPAI,9286396058.0,Emergency Department,OP_20,Door to diagnostic eval,32.0,322,NA,01/01/2015,12/31/2015,-112.01002,34.723788,arizona,218852,33589.0,15.6,0.2,Yavapai County
030010,ST. MARY'S HOSPITAL,1601 WEST ST MARY'S ROAD,TUCSON,AZ,85745,PIMA,5208723e3,Emergency Department,OP_20,Door to diagnostic eval,23.0,414,NA,01/01/2015,12/31/2015,-111.0209,32.242724,arizona,1004244,183590.0,18.7,0.2,Pima County
030011,ST JOSEPH'S HOSPITAL,350 NORTH WILMOT ROAD,TUCSON,AZ,85711,PIMA,5208733e3,Emergency Department,OP_20,Door to diagnostic eval,41.0,416,NA,01/01/2015,12/31/2015,-110.88511,32.216326,arizona,1004244,183590.0,18.7,0.2,Pima County
030012,YAVAPAI REGIONAL MEDICAL CENTER,1003 WILLOW CREEK ROAD,PRESCOTT,AZ,86301,YAVAPAI,9284452700.0,Emergency Department,OP_20,Door to diagnostic eval,22.0,437,NA,01/01/2015,12/31/2015,-112.44726,34.589477,arizona,218852,33589.0,15.6,0.2,Yavapai County
030013,YUMA REGIONAL MEDICAL CENTER,2400 SOUTH AVENUE A,YUMA,AZ,85364,YUMA,9283367600.0,Emergency Department,OP_20,Door to diagnostic eval,20.0,391,NA,01/01/2015,12/31/2015,-114.64644,32.704499,arizona,203483,44112.0,22.6,0.2,Yuma County
030014,JOHN C. LINCOLN MEDICAL CENTER,250 EAST DUNLAP AVENUE,PHOENIX,AZ,85020,MARICOPA,6028706060.0,Emergency Department,OP_20,Door to diagnostic eval,38.0,405,NA,01/01/2015,12/31/2015,-112.05519,33.563663,arizona,4090022,687643.0,17.1,0.2,Maricopa County
030016,BANNER CASA GRANDE MEDICAL CENTER,1800 EAST FLORENCE BOULEVARD,CASA GRANDE,AZ,85222,PINAL,5203816300.0,Emergency Department,OP_20,Door to diagnostic eval,36.0,308,NA,01/01/2015,12/31/2015,-111.73499,32.878138,arizona,396521,66073.0,17.6,0.2,Pinal County
030022,MARICOPA MEDICAL CENTER,2601 EAST ROOSEVELT STREET,PHOENIX,AZ,85008,MARICOPA,6023445011.0,Emergency Department,OP_20,Door to diagnostic eval,27.0,394,NA,01/01/2015,12/31/2015,-112.0008,33.466393,arizona,4090022,687643.0,17.1,0.2,Maricopa County
030023,FLAGSTAFF MEDICAL CENTER,1200 NORTH BEAVER STREET,FLAGSTAFF,AZ,86001,COCONINO,9287732378.0,Emergency Department,OP_20,Door to diagnostic eval,55.0,1841,NA,01/01/2015,12/31/2015,-111.72256,35.279872,arizona,137637,27154.0,21.3,0.2,Coconino County
030024,ST. JOSEPH'S HOSPITAL AND MEDICAL CENTER,350 WEST THOMAS ROAD,PHOENIX,AZ,85013,MARICOPA,6024065001.0,Emergency Department,OP_20,Door to diagnostic eval,14.0,414,NA,01/01/2015,12/31/2015,-112.08483,33.50711,arizona,4090022,687643.0,17.1,0.2,Maricopa County
030030,ABRAZO CENTRAL CAMPUS,2000 WEST BETHANY HOME ROAD,PHOENIX,AZ,85015,MARICOPA,6022490212.0,Emergency Department,OP_20,Door to diagnostic eval,28.0,411,NA,01/01/2015,12/31/2015,-112.10262,33.50689,arizona,4090022,687643.0,17.1,0.2,Maricopa County
030033,BANNER PAYSON MEDICAL CENTER,807 SOUTH PONDEROSA DRIVE,PAYSON,AZ,85541,GILA,9284743222.0,Emergency Department,OP_20,Door to diagnostic eval,18.0,625,NA,01/01/2015,12/31/2015,-111.28137,34.243578,arizona,53139,12683.0,24.4,0.2,Gila County
030036,CHANDLER REGIONAL MEDICAL CENTER,1955 WEST FRYE ROAD,CHANDLER,AZ,85224,MARICOPA,4807283e3,Emergency Department,OP_20,Door to diagnostic eval,20.0,408,NA,01/01/2015,12/31/2015,-111.8735,33.328951000000004,arizona,4090022,687643.0,17.1,0.2,Maricopa County
030037,ST LUKE'S MEDICAL CENTER,1800 EAST VAN BUREN STREET,PHOENIX,AZ,85006,MARICOPA,6022518156.0,Emergency Department,OP_20,Door to diagnostic eval,44.0,891,NA,01/01/2015,12/31/2015,-112.04875,33.466392,arizona,4090022,687643.0,17.1,0.2,Maricopa County
030038,SCOTTSDALE OSBORN MEDICAL CENTER,7400 EAST OSBORN ROAD,SCOTTSDALE,AZ,85251,MARICOPA,4808824e3,Emergency Department,OP_20,Door to diagnostic eval,18.0,408,NA,01/01/2015,12/31/2015,-111.92079,33.494152,arizona,4090022,687643.0,17.1,0.2,Maricopa County
030043,CANYON VISTA MEDICAL CENTER,5700 EAST HIGHWAY 90,SIERRA VISTA,AZ,85635,COCHISE,5204173001.0,Emergency Department,OP_20,Door to diagnostic eval,49.0,1196,NA,01/01/2015,12/31/2015,-110.24288,31.562546,arizona,127321,22879.0,18.7,0.2,Cochise County
030055,KINGMAN REGIONAL MEDICAL CENTER,3269 STOCKTON HILL ROAD,KINGMAN,AZ,86409,MOHAVE,9287572101.0,Emergency Department,OP_20,Door to diagnostic eval,25.0,434,NA,01/01/2015,12/31/2015,-114.01,35.24,arizona,203331,41178.0,20.8,0.2,Mohave County
030061,BANNER BOSWELL MEDICAL CENTER,10401 WEST THUNDERBIRD BOULEVARD,SUN CITY,AZ,85351,MARICOPA,6238324e3,Emergency Department,OP_20,Door to diagnostic eval,27.0,378,NA,01/01/2015,12/31/2015,-112.28316,33.60642,arizona,4090022,687643.0,17.1,0.2,Maricopa County
030062,SUMMIT HEALTHCARE REGIONAL MEDICAL CENTER,2200 EAST SHOW LOW LAKE ROAD,SHOW LOW,AZ,85901,NAVAJO,9285374375.0,Emergency Department,OP_20,Door to diagnostic eval,22.0,495,NA,01/01/2015,12/31/2015,-110.03676,34.271427,arizona,108119,30157.0,28.5,0.3,Navajo County
030064,BANNER-UNIVERSITY MEDICAL CENTER TUCSON CAMPUS,1501 NORTH CAMPBELL AVENUE,TUCSON,AZ,85724,PIMA,5208744189.0,Emergency Department,OP_20,Door to diagnostic eval,25.0,336,NA,01/01/2015,12/31/2015,-110.944343,32.240571,arizona,1004244,183590.0,18.7,0.2,Pima County
030065,BANNER DESERT MEDICAL CENTER,1400 SOUTH  DOBSON ROAD,MESA,AZ,85202,MARICOPA,4804123e3,Emergency Department,OP_20,Door to diagnostic eval,22.0,410,NA,01/01/2015,12/31/2015,-111.8756,33.381097,arizona,4090022,687643.0,17.1,0.2,Maricopa County
030068,MT. GRAHAM REGIONAL MEDICAL CENTER,1600 SOUTH 20TH AVENUE,SAFFORD,AZ,85546,GRAHAM,9283484e3,Emergency Department,OP_20,Door to diagnostic eval,8.0,504,NA,01/01/2015,12/31/2015,-109.69052,32.800222,arizona,37958,6907.0,20.0,0.2,Graham County
030069,HAVASU REGIONAL MEDICAL CENTER,101 CIVIC CENTER LANE,LAKE HAVASU CITY,AZ,86403,MOHAVE,9288558185.0,Emergency Department,OP_20,Door to diagnostic eval,12.0,460,NA,01/01/2015,12/31/2015,-114.33694,34.483582,arizona,203331,41178.0,20.8,0.2,Mohave County
030071,FORT DEFIANCE INDIAN HOSPITAL,PO BOX 649,FORT DEFIANCE,AZ,86504,APACHE,9287298e3,Emergency Department,OP_20,Door to diagnostic eval,NA,Not Available,5 - Results are not available for this reporting period.,01/01/2015,12/31/2015,-109.17878,35.771067,arizona,71858,23458.0,33.1,0.3,Apache County
030073,TUBA CITY REGIONAL HEALTH CARE CORPORATION,PO BOX 600,TUBA CITY,AZ,86045,COCONINO,9282832501.0,Emergency Department,OP_20,Door to diagnostic eval,NA,Not Available,5 - Results are not available for this reporting period.,01/01/2015,12/31/2015,-111.06828,36.061184,arizona,137637,27154.0,21.3,0.2,Coconino County
030074,SELLS INDIAN HEALTH SERVICE HOSPITAL,PO BOX 548,SELLS,AZ,85634,PIMA,5203837200.0,Emergency Department,OP_20,Door to diagnostic eval,NA,Not Available,5 - Results are not available for this reporting period.,01/01/2015,12/31/2015,-111.93712,31.998543,arizona,1004244,183590.0,18.7,0.2,Pima County
030077,SAN CARLOS APACHE HEALTHCARE,103 MEDICINE WAY ROAD,PERIDOT,AZ,85542,GILA,9284751200.0,Emergency Department,OP_20,Door to diagnostic eval,NA,Not Available,5 - Results are not available for this reporting period.,01/01/2015,12/31/2015,-110.5231,33.262553,arizona,53139,12683.0,24.4,0.2,Gila County
030078,PHOENIX INDIAN MEDICAL CENTER,4212 NORTH 16TH STREET,PHOENIX,AZ,85016,MARICOPA,6022631200.0,Emergency Department,OP_20,Door to diagnostic eval,NA,Not Available,5 - Results are not available for this reporting period.,01/01/2015,12/31/2015,-112.03235,33.503742,arizona,4090022,687643.0,17.1,0.2,Maricopa County
030083,ABRAZO SCOTTSDALE CAMPUS,3929 EAST BELL ROAD,PHOENIX,AZ,85032,MARICOPA,6029235e3,Emergency Department,OP_20,Door to diagnostic eval,23.0,74,NA,01/01/2015,12/31/2015,-112.00416,33.62414,arizona,4090022,687643.0,17.1,0.2,Maricopa County
030084,CHINLE COMPREHENSIVE HEALTH CARE FACILITY,"US HWY 191, HOSPITAL ROAD",CHINLE,AZ,86503,APACHE,9286747001.0,Emergency Department,OP_20,Door to diagnostic eval,NA,Not Available,5 - Results are not available for this reporting period.,01/01/2015,12/31/2015,-109.61956,36.165779,arizona,71858,23458.0,33.1,0.3,Apache County
030085,NORTHWEST MEDICAL CENTER,6200 NORTH LA CHOLLA BOULEVARD,TUCSON,AZ,85741,PIMA,5204698100.0,Emergency Department,OP_20,Door to diagnostic eval,13.0,424,NA,01/01/2015,12/31/2015,-111.04259,32.338126,arizona,1004244,183590.0,18.7,0.2,Pima County
030087,SCOTTSDALE SHEA MEDICAL CENTER,9003 EAST SHEA BOULEVARD,SCOTTSDALE,AZ,85260,MARICOPA,4803233009.0,Emergency Department,OP_20,Door to diagnostic eval,20.0,406,NA,01/01/2015,12/31/2015,-111.88699,33.606004,arizona,4090022,687643.0,17.1,0.2,Maricopa County
030088,BANNER BAYWOOD MEDICAL CENTER,6644 EAST BAYWOOD AVENUE,MESA,AZ,85206,MARICOPA,4806845898.0,Emergency Department,OP_20,Door to diagnostic eval,31.0,396,NA,01/01/2015,12/31/2015,-111.72452,33.400306,arizona,4090022,687643.0,17.1,0.2,Maricopa County
030089,BANNER THUNDERBIRD MEDICAL CENTER,5555 WEST THUNDERBIRD ROAD,GLENDALE,AZ,85306,MARICOPA,4806845898.0,Emergency Department,OP_20,Door to diagnostic eval,32.0,399,NA,01/01/2015,12/31/2015,-112.1767,33.624546,arizona,4090022,687643.0,17.1,0.2,Maricopa County
030092,HONORHEALTH DEER VALLEY MEDICAL CENTER,19829 NORTH 27TH AVENUE,PHOENIX,AZ,85027,MARICOPA,6238796100.0,Emergency Department,OP_20,Door to diagnostic eval,17.0,408,NA,01/01/2015,12/31/2015,-112.11429,33.698731,arizona,4090022,687643.0,17.1,0.2,Maricopa County
030093,BANNER DEL E WEBB MEDICAL CENTER,14502 WEST MEEKER BOULEVARD,SUN CITY WEST,AZ,85375,MARICOPA,6232144e3,Emergency Department,OP_20,Door to diagnostic eval,22.0,322,NA,01/01/2015,12/31/2015,-112.36474,33.683352,arizona,4090022,687643.0,17.1,0.2,Maricopa County
030094,ABRAZO ARROWHEAD CAMPUS,18701 NORTH 67TH AVENUE,GLENDALE,AZ,85308,MARICOPA,6235611e3,Emergency Department,OP_20,Door to diagnostic eval,25.0,138,NA,01/01/2015,12/31/2015,-112.17825,33.657722,arizona,4090022,687643.0,17.1,0.2,Maricopa County
030101,WESTERN ARIZONA REGIONAL MEDICAL CENTER,2735 SILVER CREEK ROAD,BULLHEAD CITY,AZ,86442,MOHAVE,9287632273.0,Emergency Department,OP_20,Door to diagnostic eval,17.0,425,NA,01/01/2015,12/31/2015,-114.59734,35.097719,arizona,203331,41178.0,20.8,0.2,Mohave County
030103,MAYO CLINIC HOSPITAL,5777 EAST MAYO BOULEVARD,PHOENIX,AZ,85054,MARICOPA,4803422e3,Emergency Department,OP_20,Door to diagnostic eval,32.0,166,NA,01/01/2015,12/31/2015,-111.96463,33.689558,arizona,4090022,687643.0,17.1,0.2,Maricopa County
030105,BANNER HEART HOSPITAL,6750 EAST BAYWOOD AVENUE,MESA,AZ,85206,MARICOPA,4808545050.0,Emergency Department,OP_20,Door to diagnostic eval,NA,Not Available,5 - Results are not available for this reporting period.,01/01/2015,12/31/2015,-111.72452,33.400306,arizona,4090022,687643.0,17.1,0.2,Maricopa County
030107,ARIZONA SPINE AND JOINT HOSPITAL,4620 EAST BASELINE ROAD,MESA,AZ,85206,MARICOPA,4808324770.0,Emergency Department,OP_20,Door to diagnostic eval,NA,Not Available,5 - Results are not available for this reporting period.,01/01/2015,12/31/2015,-111.72452,33.400306,arizona,4090022,687643.0,17.1,0.2,Maricopa County
030108,"CORE INSTITUTE SPECIALTY HOSPITAL, THE",6501 NORTH 19TH AVENUE,PHOENIX,AZ,85015,MARICOPA,6027956020.0,Emergency Department,OP_20,Door to diagnostic eval,NA,Not Available,5 - Results are not available for this reporting period.,01/01/2015,12/31/2015,-112.10262,33.50689,arizona,4090022,687643.0,17.1,0.2,Maricopa County
030110,ABRAZO WEST CAMPUS,13677 WEST MCDOWELL ROAD,GOODYEAR,AZ,85395,MARICOPA,6238821515.0,Emergency Department,OP_20,Door to diagnostic eval,33.0,145,NA,01/01/2015,12/31/2015,-112.246311,33.580089,arizona,4090022,687643.0,17.1,0.2,Maricopa County
030111,BANNER-UNIVERSITY MEDICAL CENTER SOUTH CAMPUS,2800 EAST AJO WAY,TUCSON,AZ,85713,PIMA,5202944471.0,Emergency Department,OP_20,Door to diagnostic eval,21.0,349,NA,01/01/2015,12/31/2015,-110.9757,32.194909,arizona,1004244,183590.0,18.7,0.2,Pima County
030112,ARIZONA ORTHOPEDIC AND SURGICAL SPECIALITY HOSP,2905 WEST WARNER ROAD,CHANDLER,AZ,85224,MARICOPA,4806039e3,Emergency Department,OP_20,Door to diagnostic eval,NA,Not Available,5 - Results are not available for this reporting period.,01/01/2015,12/31/2015,-111.8735,33.328951000000004,arizona,4090022,687643.0,17.1,0.2,Maricopa County
030113,WHITERIVER PHS INDIAN HOSPITAL,200 WEST HOSPITAL DRIVE  (PO BOX 860),WHITERIVER,AZ,85941,NAVAJO,9283384911.0,Emergency Department,OP_20,Door to diagnostic eval,NA,Not Available,5 - Results are not available for this reporting period.,01/01/2015,12/31/2015,-110.03334,33.849439,arizona,108119,30157.0,28.5,0.3,Navajo County
030114,ORO VALLEY HOSPITAL,1551 EAST TANGERINE ROAD,ORO VALLEY,AZ,85755,PIMA,5209013549.0,Emergency Department,OP_20,Door to diagnostic eval,20.0,158,NA,01/01/2015,12/31/2015,-110.97,32.46,arizona,1004244,183590.0,18.7,0.2,Pima County
030115,BANNER ESTRELLA MEDICAL CENTER,9201 WEST THOMAS ROAD,PHOENIX,AZ,85037,MARICOPA,6233274e3,Emergency Department,OP_20,Door to diagnostic eval,39.0,396,NA,01/01/2015,12/31/2015,-112.25539,33.493006,arizona,4090022,687643.0,17.1,0.2,Maricopa County
030117,VALLEY VIEW MEDICAL CENTER,5330 SOUTH HIGHWAY 95,FORT MOHAVE,AZ,86426,MOHAVE,9287887252.0,Emergency Department,OP_20,Door to diagnostic eval,16.0,413,NA,01/01/2015,12/31/2015,-114.58524,35.013495,arizona,203331,41178.0,20.8,0.2,Mohave County
030118,YAVAPAI REGIONAL MEDICAL CENTER-EAST CAMPUS,7700 EAST FLORENTINE ROAD,PRESCOTT VALLEY,AZ,86314,YAVAPAI,9287715676.0,Emergency Department,OP_20,Door to diagnostic eval,20.0,444,NA,01/01/2015,12/31/2015,-112.32176,34.621743,arizona,218852,33589.0,15.6,0.2,Yavapai County
030119,MERCY GILBERT MEDICAL CENTER,3555 SOUTH VAL VISTA DRIVE,GILBERT,AZ,85296,MARICOPA,4807288e3,Emergency Department,OP_20,Door to diagnostic eval,15.0,408,NA,01/01/2015,12/31/2015,-111.76078,33.319722,arizona,4090022,687643.0,17.1,0.2,Maricopa County
030120,GILBERT HOSPITAL,5656 SOUTH POWER ROAD,GILBERT,AZ,85295,MARICOPA,4808403715.0,Emergency Department,OP_20,Door to diagnostic eval,12.0,383,NA,01/01/2015,12/31/2015,-111.74,33.3,arizona,4090022,687643.0,17.1,0.2,Maricopa County
030121,"MOUNTAIN VISTA MEDICAL CENTER, LP",1301 SOUTH CRISMON ROAD,MESA,AZ,85209,MARICOPA,4803586100.0,Emergency Department,OP_20,Door to diagnostic eval,40.0,649,NA,01/01/2015,12/31/2015,-111.64,33.37,arizona,4090022,687643.0,17.1,0.2,Maricopa County
030122,BANNER GATEWAY MEDICAL CENTER,1900 NORTH HIGLEY ROAD,GILBERT,AZ,85234,MARICOPA,4805432e3,Emergency Department,OP_20,Door to diagnostic eval,31.0,405,NA,01/01/2015,12/31/2015,-111.75093,33.36344,arizona,4090022,687643.0,17.1,0.2,Maricopa County
030123,SCOTTSDALE THOMPSON PEAK MEDICAL CENTER,7400 EAST THOMPSON PEAK PARKWAY,SCOTTSDALE,AZ,85255,MARICOPA,4803247004.0,Emergency Department,OP_20,Door to diagnostic eval,17.0,414,NA,01/01/2015,12/31/2015,-111.88321,33.697268,arizona,4090022,687643.0,17.1,0.2,Maricopa County
030130,BANNER IRONWOOD MEDICAL CENTER,37000 NORTH GANTZEL ROAD,SAN TAN VALLEY,AZ,85140,PINAL,4803944030.0,Emergency Department,OP_20,Door to diagnostic eval,16.0,404,NA,01/01/2015,12/31/2015,-111.57,33.17,arizona,396521,66073.0,17.6,0.2,Pinal County
030131,O.A.S.I.S. HOSPITAL,750 NORTH 40TH STREET,PHOENIX,AZ,85008,MARICOPA,6027977700.0,Emergency Department,OP_20,Door to diagnostic eval,NA,Not Available,5 - Results are not available for this reporting period.,01/01/2015,12/31/2015,-112.0008,33.466393,arizona,4090022,687643.0,17.1,0.2,Maricopa County
030132,"FLORENCE HOSPITAL AT ANTHEM, LLC",4545 NORTH HUNT HIGHWAY,FLORENCE,AZ,85132,PINAL,5204242060.0,Emergency Department,OP_20,Door to diagnostic eval,10.0,380,NA,01/01/2015,12/31/2015,-111.23,32.95,arizona,396521,66073.0,17.6,0.2,Pinal County
030134,BANNER GOLDFIELD MEDICAL CENTER,2050 WEST SOUTHERN AVENUE,APACHE JUNCTION,AZ,85120,PINAL,4807333300.0,Emergency Department,OP_20,Door to diagnostic eval,10.0,401,NA,01/01/2015,12/31/2015,-111.56,33.4,arizona,396521,66073.0,17.6,0.2,Pinal County
030136,DIGNITY HEALTH - ARIZONA GENERAL HOSPITAL,7171 SOUTH 51ST AVENUE,LAVEEN,AZ,85339,MARICOPA,6235845100.0,Emergency Department,OP_20,Door to diagnostic eval,20.0,201,3 - Results are based on a shorter time period than required.,01/01/2015,12/31/2015,-112.16752,33.352795,arizona,4090022,687643.0,17.1,0.2,Maricopa County
030137,GREEN VALLEY HOSPITAL,4455 SOUTH I-19 FRONTAGE ROAD,GREEN VALLEY,AZ,85614,PIMA,5203934710.0,Emergency Department,OP_20,Door to diagnostic eval,NA,Not Available,5 - Results are not available for this reporting period.,01/01/2015,12/31/2015,-111.00904,31.857504,arizona,1004244,183590.0,18.7,0.2,Pima County
031300,WICKENBURG COMMUNITY HOSPITAL,520 ROSE LANE,WICKENBURG,AZ,85390,MARICOPA,9286845421.0,Emergency Department,OP_20,Door to diagnostic eval,NA,Not Available,5 - Results are not available for this reporting period.,01/01/2015,12/31/2015,-112.76952,33.961122,arizona,4090022,687643.0,17.1,0.2,Maricopa County
031301,BENSON HOSPITAL,450 SOUTH OCOTILLO AVENUE,BENSON,AZ,85602,COCHISE,5205862261.0,Emergency Department,OP_20,Door to diagnostic eval,NA,Not Available,5 - Results are not available for this reporting period.,01/01/2015,12/31/2015,-110.3182,32.010164,arizona,127321,22879.0,18.7,0.2,Cochise County
031302,NORTHERN COCHISE COMMUNITY HOSPITAL,901 WEST REX ALLEN DRIVE,WILLCOX,AZ,85643,COCHISE,5203843541.0,Emergency Department,OP_20,Door to diagnostic eval,NA,Not Available,5 - Results are not available for this reporting period.,01/01/2015,12/31/2015,-109.88461,32.356537,arizona,127321,22879.0,18.7,0.2,Cochise County
031304,PAGE HOSPITAL,501 NORTH NAVAJO DRIVE,PAGE,AZ,86040,COCONINO,9286452424.0,Emergency Department,OP_20,Door to diagnostic eval,NA,Not Available,5 - Results are not available for this reporting period.,01/01/2015,12/31/2015,-111.4284,36.726377,arizona,137637,27154.0,21.3,0.2,Coconino County
031305,HOPI HEALTH CARE CENTER,"HIGHWAY 264, MILEPOST 388",POLACCA,AZ,86042,NAVAJO,9287376e3,Emergency Department,OP_20,Door to diagnostic eval,NA,Not Available,5 - Results are not available for this reporting period.,01/01/2015,12/31/2015,-110.36628,35.835642,arizona,108119,30157.0,28.5,0.3,Navajo County
031307,PARKER INDIAN HEALTH CENTER,12033 AGENCY ROAD,PARKER,AZ,85344,LAPAZ,9286692137.0,Emergency Department,OP_20,Door to diagnostic eval,NA,Not Available,19 - Data are shown only for hospitals that participate in the Inpatient Quality Reporting (IQR) and Outpatient Quality Reporting (OQR) programs.,01/01/2015,12/31/2015,-114.30462,34.100704,arizona,20314,4545.0,22.8,0.2,La Paz County
031308,HUHU KAM MEMORIAL HOSPITAL,483 WEST SEED FARM ROAD,SACATON,AZ,85147,PINAL,5205623321.0,Emergency Department,OP_20,Door to diagnostic eval,NA,Not Available,19 - Data are shown only for hospitals that participate in the Inpatient Quality Reporting (IQR) and Outpatient Quality Reporting (OQR) programs.,01/01/2015,12/31/2015,-111.74,33.08,arizona,396521,66073.0,17.6,0.2,Pinal County
031309,SAGE MEMORIAL HOSPITAL,STATE ROUTE 264 SOUTH 191 PO BOX 457,GANADO,AZ,86505,APACHE,9287554559.0,Emergency Department,OP_20,Door to diagnostic eval,NA,Not Available,5 - Results are not available for this reporting period.,01/01/2015,12/31/2015,-109.65344,35.665344,arizona,71858,23458.0,33.1,0.3,Apache County
031311,LITTLE COLORADO MEDICAL CENTER,1501 NORTH WILLIAMSON AVENUE,WINSLOW,AZ,86047,NAVAJO,9282894691.0,Emergency Department,OP_20,Door to diagnostic eval,NA,Not Available,5 - Results are not available for this reporting period.,01/01/2015,12/31/2015,-110.53128,35.258309,arizona,108119,30157.0,28.5,0.3,Navajo County
031312,COPPER QUEEN COMMUNITY HOSPITAL,101 COLE AVENUE,BISBEE,AZ,85603,COCHISE,5204326401.0,Emergency Department,OP_20,Door to diagnostic eval,NA,Not Available,5 - Results are not available for this reporting period.,01/01/2015,12/31/2015,-109.8958,31.406229,arizona,127321,22879.0,18.7,0.2,Cochise County
031313,HOLY CROSS HOSPITAL,1171 WEST TARGET RANGE ROAD,NOGALES,AZ,85621,SANTACRUZ,5202853e3,Emergency Department,OP_20,Door to diagnostic eval,8.0,203,3 - Results are based on a shorter time period than required.,01/01/2015,12/31/2015,-110.9264,31.37737,arizona,46661,10966.0,23.6,0.2,Santa Cruz County
031314,COBRE VALLEY REGIONAL MEDICAL CENTER,5880 SOUTH HOSPITAL DRIVE,GLOBE,AZ,85501,GILA,9284253261.0,Emergency Department,OP_20,Door to diagnostic eval,38.0,79,3 - Results are based on a shorter time period than required.,01/01/2015,12/31/2015,-110.75681,33.53457,arizona,53139,12683.0,24.4,0.2,Gila County
031315,WHITE MOUNTAIN REGIONAL MEDICAL CENTER,118 SOUTH MOUNTAIN AVENUE,SPRINGERVILLE,AZ,85938,APACHE,9283334368.0,Emergency Department,OP_20,Door to diagnostic eval,NA,Not Available,5 - Results are not available for this reporting period.,01/01/2015,12/31/2015,-109.22291,34.094597,arizona,71858,23458.0,33.1,0.3,Apache County
031317,LA PAZ REGIONAL HOSPITAL,1200 WEST MOHAVE ROAD,PARKER,AZ,85344,LAPAZ,9286699201.0,Emergency Department,OP_20,Door to diagnostic eval,NA,Not Available,5 - Results are not available for this reporting period.,01/01/2015,12/31/2015,-114.30462,34.100704,arizona,20314,4545.0,22.8,0.2,La Paz County
033301,"LOS NINOS HOSPITAL, INC.",2303 EAST THOMAS,PHOENIX,AZ,85016,MARICOPA,6029547311.0,Emergency Department,OP_20,Door to diagnostic eval,NA,Not Available,19 - Data are shown only for hospitals that participate in the Inpatient Quality Reporting (IQR) and Outpatient Quality Reporting (OQR) programs.,01/01/2015,12/31/2015,-112.03235,33.503742,arizona,4090022,687643.0,17.1,0.2,Maricopa County
033302,PHOENIX CHILDREN'S HOSPITAL,1919 EAST THOMAS ROAD,PHOENIX,AZ,85016,MARICOPA,6029331e3,Emergency Department,OP_20,Door to diagnostic eval,NA,Not Available,5 - Results are not available for this reporting period.,01/01/2015,12/31/2015,-112.03235,33.503742,arizona,4090022,687643.0,17.1,0.2,Maricopa County
033303,"HACIENDA CHILDREN'S HOSPITAL, INC.",610 WEST JEROME AVENUE,MESA,AZ,85210,MARICOPA,6022434231.0,Emergency Department,OP_20,Door to diagnostic eval,NA,Not Available,19 - Data are shown only for hospitals that participate in the Inpatient Quality Reporting (IQR) and Outpatient Quality Reporting (OQR) programs.,01/01/2015,12/31/2015,-111.84129,33.391233,arizona,4090022,687643.0,17.1,0.2,Maricopa County
040001,SILOAM SPRINGS REGIONAL HOSPITAL,603 NORTH PROGRESS AVENUE,SILOAM SPRINGS,AR,72761,BENTON,4795244141.0,Emergency Department,OP_20,Door to diagnostic eval,21.0,430,NA,01/01/2015,12/31/2015,-94.50208,36.179905,arkansas,242868,28436.0,11.9,0.1,Benton County
040002,JOHNSON REGIONAL MEDICAL CENTER,1100 EAST POPLAR STREET,CLARKSVILLE,AR,72830,JOHNSON,4797545454.0,Emergency Department,OP_20,Door to diagnostic eval,18.0,329,NA,01/01/2015,12/31/2015,-93.4851,35.490105,arkansas,26013,4991.0,19.7,0.2,Johnson County
040004,WASHINGTON REGIONAL MEDICAL CENTER,3215 N NORTH HILLS BOULEVARD,FAYETTEVILLE,AR,72703,WASHINGTON,4794635113.0,Emergency Department,OP_20,Door to diagnostic eval,41.0,368,NA,01/01/2015,12/31/2015,-94.11592,36.107078,arkansas,220682,41097.0,19.3,0.2,Washington County
040007,CHI-ST VINCENT INFIRMARY,TWO ST VINCENT CIRCLE,LITTLE ROCK,AR,72205,PULASKI,5015523e3,Emergency Department,OP_20,Door to diagnostic eval,56.0,257,NA,01/01/2015,12/31/2015,-92.3355,34.752391,arkansas,392490,61892.0,16.1,0.2,Pulaski County
040010,MERCY HOSPITAL NORTHWEST ARKANSAS,2710 SOUTH RIFE MEDICAL LANE,ROGERS,AR,72758,BENTON,4793388e3,Emergency Department,OP_20,Door to diagnostic eval,16.0,396,NA,01/01/2015,12/31/2015,-94.14622,36.306616,arkansas,242868,28436.0,11.9,0.1,Benton County
040011,CHAMBERS MEMORIAL HOSPITAL,719 DETROIT STREET,DANVILLE,AR,72833,YELL,4794952241.0,Emergency Department,OP_20,Door to diagnostic eval,14.0,413,NA,01/01/2015,12/31/2015,-93.4195,35.044021,arkansas,21916,3749.0,17.4,0.2,Yell County
040014,WHITE COUNTY MEDICAL CENTER,3214 EAST RACE AVENUE,SEARCY,AR,72143,WHITE,5012783100.0,Emergency Department,OP_20,Door to diagnostic eval,31.0,719,NA,01/01/2015,12/31/2015,-91.73776,35.239022,arkansas,78643,14506.0,19.4,0.2,White County
040015,MENA REGIONAL HEALTH SYSTEM,311 NORTH MORROW STREET,MENA,AR,71953,POLK,4793946100.0,Emergency Department,OP_20,Door to diagnostic eval,25.0,455,NA,01/01/2015,12/31/2015,-94.21567,34.588479,arkansas,20254,4399.0,22.0,0.2,Polk County
040016,UAMS MEDICAL CENTER,4301 WEST MARKHAM STREET MAIL SLOT 612,LITTLE ROCK,AR,72205,PULASKI,5016865e3,Emergency Department,OP_20,Door to diagnostic eval,51.0,383,NA,01/01/2015,12/31/2015,-92.3355,34.752391,arkansas,392490,61892.0,16.1,0.2,Pulaski County
040017,NORTH ARKANSAS REGIONAL MEDICAL CENTER,620 NORTH MAIN STREET,HARRISON,AR,72601,BOONE,8704144e3,Emergency Department,OP_20,Door to diagnostic eval,14.0,388,NA,01/01/2015,12/31/2015,-93.09345,36.236984,arkansas,37152,6206.0,16.9,0.2,Boone County
040018,SPARKS MEDICAL CENTER - VAN BUREN,EAST MAIN AND SOUTH 20TH STREET,VAN BUREN,AR,72956,CRAWFORD,4794743401.0,Emergency Department,OP_20,Door to diagnostic eval,18.0,422,NA,01/01/2015,12/31/2015,-94.34581,35.456536,arkansas,61670,10152.0,16.6,0.2,Crawford County
040019,FORREST CITY MEDICAL CENTER,1601 NEWCASTLE ROAD,FORREST CITY,AR,72335,SAINTFRANCIS,870261e4,Emergency Department,OP_20,Door to diagnostic eval,24.0,428,NA,01/01/2015,12/31/2015,-90.78048,35.010683,arkansas,26977,7607.0,33.4,0.3,St. Francis County
040020,ST BERNARDS MEDICAL CENTER,225 E JACKSON,JONESBORO,AR,72401,CRAIGHEAD,8709724100.0,Emergency Department,OP_20,Door to diagnostic eval,30.0,340,NA,01/01/2015,12/31/2015,-90.68443,35.844795,arkansas,102671,21974.0,22.3,0.2,Craighead County
040022,NORTHWEST MEDICAL CENTER-SPRINGDALE,609 WEST MAPLE AVENUE,SPRINGDALE,AR,72764,WASHINGTON,4797515711.0,Emergency Department,OP_20,Door to diagnostic eval,18.0,412,NA,01/01/2015,12/31/2015,-94.1082,36.182407,arkansas,220682,41097.0,19.3,0.2,Washington County
040026,CHI ST. VINCENT HOSPITAL HOT SPRINGS,300 WERNER STREET,HOT SPRINGS,AR,71903,GARLAND,5016221e3,Emergency Department,OP_20,Door to diagnostic eval,29.0,392,NA,01/01/2015,12/31/2015,-93.099403,34.581374,arkansas,97185,17929.0,18.7,0.2,Garland County
040027,BAXTER REGIONAL MEDICAL CENTER,624 HOSPITAL DRIVE,MOUNTAIN HOME,AR,72653,BAXTER,8705081e3,Emergency Department,OP_20,Door to diagnostic eval,16.0,292,NA,01/01/2015,12/31/2015,-92.35781,36.329026,arkansas,40842,6021.0,14.9,0.1,Baxter County
040029,CONWAY REGIONAL MEDICAL CENTER,2302 COLLEGE AVENUE,CONWAY,AR,72034,FAULKNER,5013293831.0,Emergency Department,OP_20,Door to diagnostic eval,38.0,384,NA,01/01/2015,12/31/2015,-92.444426000000007,35.074617,arkansas,120878,17140.0,14.7,0.1,Faulkner County
040036,BAPTIST HEALTH MEDICAL CENTER NORTH LITTLE ROCK,3333 SPRINGHILL DRIVE,NORTH LITTLE ROCK,AR,72117,PULASKI,5012023e3,Emergency Department,OP_20,Door to diagnostic eval,26.0,381,NA,01/01/2015,12/31/2015,-92.17913,34.777238,arkansas,392490,61892.0,16.1,0.2,Pulaski County
040039,ARKANSAS METHODIST MEDICAL CENTER,900 WEST KINGSHIGHWAY,PARAGOULD,AR,72450,GREENE,8702397e3,Emergency Department,OP_20,Door to diagnostic eval,34.0,1421,NA,01/01/2015,12/31/2015,-90.5102,36.065711,arkansas,43729,6994.0,16.3,0.2,Greene County
040041,ST MARYS REGIONAL MEDICAL CENTER,1808 WEST MAIN STREET,RUSSELLVILLE,AR,72801,POPE,4799682841.0,Emergency Department,OP_20,Door to diagnostic eval,39.0,474,NA,01/01/2015,12/31/2015,-93.13682,35.278429,arkansas,63047,10868.0,18.3,0.2,Pope County
040047,FIVE RIVERS MEDICAL CENTER,2801 MEDICAL CENTER DRIVE,POCAHONTAS,AR,72455,RANDOLPH,8708926e3,Emergency Department,OP_20,Door to diagnostic eval,13.0,383,NA,01/01/2015,12/31/2015,-91.0141,36.304912,arkansas,17550,3141.0,18.3,0.2,Randolph County
040050,OUACHITA COUNTY MEDICAL CENTER,638 CALIFORNIA AVENUE,CAMDEN,AR,71701,OUACHITA,8708361e3,Emergency Department,OP_20,Door to diagnostic eval,14.0,380,NA,01/01/2015,12/31/2015,-92.81368,33.578096,arkansas,24789,5617.0,23.0,0.2,Ouachita County
040051,DREW MEMORIAL HOSPITAL,778 SCOGIN DRIVE,MONTICELLO,AR,71655,DREW,8703672411.0,Emergency Department,OP_20,Door to diagnostic eval,25.0,457,NA,01/01/2015,12/31/2015,-91.76272,33.62086,arkansas,18729,4249.0,24.0,0.2,Drew County
040055,SPARKS REGIONAL MEDICAL CENTER,1001 TOWSON AVENUE,FORT SMITH,AR,72902,SEBASTIAN,4794414e3,Emergency Department,OP_20,Door to diagnostic eval,20.0,432,NA,01/01/2015,12/31/2015,-94.409114,35.38619,arkansas,126990,27549.0,22.1,0.2,Sebastian County
040062,ST EDWARD MERCY MEDICAL CENTER,7301 ROGERS AVE,FORT SMITH,AR,72917,SEBASTIAN,4793146e3,Emergency Department,OP_20,Door to diagnostic eval,51.0,390,NA,01/01/2015,12/31/2015,-94.23816,35.191046,arkansas,126990,27549.0,22.1,0.2,Sebastian County
040067,MAGNOLIA HOSPITAL,101 HOSPITAL DRIVE,MAGNOLIA,AR,71754,COLUMBIA,8702353e3,Emergency Department,OP_20,Door to diagnostic eval,43.0,377,NA,01/01/2015,12/31/2015,-93.22996,33.242571,arkansas,24102,5363.0,24.1,0.2,Columbia County
040069,GREAT RIVER MEDICAL CENTER,1520 N DIVISION STREET,BLYTHEVILLE,AR,72315,MISSISSIPPI,8708387300.0,Emergency Department,OP_20,Door to diagnostic eval,21.0,385,NA,01/01/2015,12/31/2015,-89.91767,35.925991,arkansas,44282,11744.0,27.1,0.3,Mississippi County
040071,JEFFERSON REGIONAL MEDICAL CENTER,1600 WEST 40TH AVENUE,PINE BLUFF,AR,71603,JEFFERSON,8705417100.0,Emergency Department,OP_20,Door to diagnostic eval,43.0,368,NA,01/01/2015,12/31/2015,-92.04495,34.189398,arkansas,72377,18042.0,26.8,0.2,Jefferson County
040072,BAPTIST HEALTH MEDICAL CENTER-STUTTGART,1703 NORTH BUERKLE ST,STUTTGART,AR,72160,ARKANSAS,8706733511.0,Emergency Department,OP_20,Door to diagnostic eval,16.0,380,NA,01/01/2015,12/31/2015,-91.53854,34.479852,arkansas,18564,3735.0,20.4,0.2,Arkansas County
040074,NORTH METRO MEDICAL CENTER,1400 BRADEN STREET,JACKSONVILLE,AR,72076,PULASKI,5019857e3,Emergency Department,OP_20,Door to diagnostic eval,43.0,379,NA,01/01/2015,12/31/2015,-92.12244,34.879419,arkansas,392490,61892.0,16.1,0.2,Pulaski County
040076,BAPTIST HEALTH MEDICAL CENTER-HOT SPRINGS COUNTY,1001 SCHNEIDER DRIVE,MALVERN,AR,72104,HOTSPRING,5013321e3,Emergency Department,OP_20,Door to diagnostic eval,20.0,352,NA,01/01/2015,12/31/2015,-92.8146,34.364093,arkansas,33333,5815.0,18.7,0.2,Hot Spring County
040078,NATIONAL PARK MEDICAL CENTER,1910 MALVERN AVENUE,HOT SPRINGS,AR,71901,GARLAND,5013211e3,Emergency Department,OP_20,Door to diagnostic eval,43.0,464,NA,01/01/2015,12/31/2015,-93.01941,34.506487,arkansas,97185,17929.0,18.7,0.2,Garland County
040080,UNITY HEALTH HARRIS MEDICAL CENTER,1205 MCLAIN STREET,NEWPORT,AR,72112,JACKSON,8705238911.0,Emergency Department,OP_20,Door to diagnostic eval,41.0,95,3 - Results are based on a shorter time period than required.,01/01/2015,12/31/2015,-91.24695,35.586065,arkansas,17503,3864.0,25.1,0.2,Jackson County
040084,SALINE MEMORIAL HOSPITAL,#1 MEDICAL PARK DRIVE,BENTON,AR,72015,SALINE,5017766e3,Emergency Department,OP_20,Door to diagnostic eval,16.0,386,NA,01/01/2015,12/31/2015,-92.59562,34.564734,arkansas,115750,9909.0,8.7,0.1,Saline County
040085,HELENA REGIONAL MEDICAL CENTER,1801 MARTIN LUTHER KING JR DRIVE,HELENA,AR,72342,PHILLIPS,8703385800.0,Emergency Department,OP_20,Door to diagnostic eval,44.0,418,NA,01/01/2015,12/31/2015,-90.64636,34.485028,arkansas,19901,6950.0,35.3,0.3,Phillips County
040088,MEDICAL CENTER SOUTH ARKANSAS,700 WEST GROVE STREET,EL DORADO,AR,71731,UNION,8708632e3,Emergency Department,OP_20,Door to diagnostic eval,10.0,429,NA,01/01/2015,12/31/2015,-92.52891,33.198024,arkansas,40175,9184.0,23.1,0.2,Union County
040114,BAPTIST HEALTH MEDICAL CENTER-LITTLE ROCK,"9601 INTERSTATE 630, EXIT 7",LITTLE ROCK,AR,72205,PULASKI,5012022e3,Emergency Department,OP_20,Door to diagnostic eval,46.0,383,NA,01/01/2015,12/31/2015,-92.3355,34.752391,arkansas,392490,61892.0,16.1,0.2,Pulaski County
040118,NEA BAPTIST MEMORIAL HOSPITAL,4800 EAST JOHNSON AVENUE,JONESBORO,AR,72401,CRAIGHEAD,8709727e3,Emergency Department,OP_20,Door to diagnostic eval,28.0,405,NA,01/01/2015,12/31/2015,-90.68443,35.844795,arkansas,102671,21974.0,22.3,0.2,Craighead County
040119,WHITE RIVER MEDICAL CENTER,1710 HARRISON STREET,BATESVILLE,AR,72503,INDEPENDENCE,8702621200.0,Emergency Department,OP_20,Door to diagnostic eval,29.0,419,NA,01/01/2015,12/31/2015,-91.534303,35.734617,arkansas,37061,6695.0,18.6,0.2,Independence County
040132,LEVI HOSPITAL,300 PROSPECT AVE,HOT SPRINGS,AR,71901,GARLAND,5016241281.0,Emergency Department,OP_20,Door to diagnostic eval,NA,Not Available,5 - Results are not available for this reporting period.,01/01/2015,12/31/2015,-93.01941,34.506487,arkansas,97185,17929.0,18.7,0.2,Garland County
040134,"ARKANSAS HEART HOSPITAL, LLC",1701 S SHACKLEFORD ROAD,LITTLE ROCK,AR,72211,PULASKI,5012197e3,Emergency Department,OP_20,Door to diagnostic eval,17.0,413,NA,01/01/2015,12/31/2015,-92.41345,34.749723,arkansas,392490,61892.0,16.1,0.2,Pulaski County
040137,ST VINCENT MEDICAL CENTER/NORTH,2215 WILDWOOD AVENUE,SHERWOOD,AR,72120,PULASKI,5015527100.0,Emergency Department,OP_20,Door to diagnostic eval,31.0,337,NA,01/01/2015,12/31/2015,-92.21997,34.855962,arkansas,392490,61892.0,16.1,0.2,Pulaski County
040147,ARKANSAS SURGICAL HOSPITAL,5201 NORTH SHORE DRIVE,NO LITTLE ROCK,AR,72118,PULASKI,5017488e3,Emergency Department,OP_20,Door to diagnostic eval,45.0,116,NA,01/01/2015,12/31/2015,-92.30229,34.813269,arkansas,392490,61892.0,16.1,0.2,Pulaski County
040152,NORTHWEST HEALTH PHYSICIANS SPECIALTY HOSPITAL,3873 NORTH PARKVIEW DRIVE,FAYETTEVILLE,AR,72703,WASHINGTON,4795717002.0,Emergency Department,OP_20,Door to diagnostic eval,28.0,85,NA,01/01/2015,12/31/2015,-94.11592,36.107078,arkansas,220682,41097.0,19.3,0.2,Washington County
040153,WADLEY REGIONAL MEDICAL CENTER AT HOPE,2001 SOUTH MAIN,HOPE,AR,71801,HEMPSTEAD,8707223800.0,Emergency Department,OP_20,Door to diagnostic eval,26.0,503,NA,01/01/2015,12/31/2015,-93.59486,33.657969,arkansas,22317,5383.0,24.4,0.2,Hempstead County
041300,NORTH LOGAN MERCY HOSPITAL,500 EAST ACADEMY,PARIS,AR,72855,LOGAN,4799636101.0,Emergency Department,OP_20,Door to diagnostic eval,NA,Not Available,5 - Results are not available for this reporting period.,01/01/2015,12/31/2015,-93.72139,35.293281,arkansas,21919,4532.0,21.1,0.2,Logan County
041302,RIVER VALLEY MEDICAL CENTER,200 NORTH THIRD STREET,DARDANELLE,AR,72834,YELL,4792294677.0,Emergency Department,OP_20,Door to diagnostic eval,20.0,96,3 - Results are based on a shorter time period than required.,01/01/2015,12/31/2015,-93.17973,35.199221,arkansas,21916,3749.0,17.4,0.2,Yell County
041303,MERCY HOSPITAL TURNER MEMORIAL,801 WEST RIVER STREET,OZARK,AR,72949,FRANKLIN,4796674138.0,Emergency Department,OP_20,Door to diagnostic eval,NA,Not Available,5 - Results are not available for this reporting period.,01/01/2015,12/31/2015,-93.81819,35.549469,arkansas,17766,3066.0,17.5,0.2,Franklin County
041304,"EUREKA SPRINGS HOSPITAL, LLC",24 NORRIS STREET,EUREKA SPRINGS,AR,72632,CARROLL,4792537400.0,Emergency Department,OP_20,Door to diagnostic eval,NA,Not Available,5 - Results are not available for this reporting period.,01/01/2015,12/31/2015,-93.7476,36.392122,arkansas,27722,4909.0,17.9,0.2,Carroll County
041305,MERCY HOSPITAL WALDRON,1341 WEST SIXTH STREET,WALDRON,AR,72958,SCOTT,4796374135.0,Emergency Department,OP_20,Door to diagnostic eval,NA,Not Available,5 - Results are not available for this reporting period.,01/01/2015,12/31/2015,-94.13624,34.907335,arkansas,10683,2501.0,23.7,0.2,Scott County
041306,COMMUNITY MEDICAL CENTER IZARD COUNTY,103 GRASSE STREET,CALICO ROCK,AR,72519,IZARD,8702973726.0,Emergency Department,OP_20,Door to diagnostic eval,NA,Not Available,5 - Results are not available for this reporting period.,01/01/2015,12/31/2015,-92.16638,36.132092,arkansas,13488,2756.0,22.0,0.2,Izard County
041307,CROSSRIDGE COMMUNITY HOSPITAL,310 SOUTH FALLS BOULEVARD,WYNNE,AR,72396,CROSS,8702383300.0,Emergency Department,OP_20,Door to diagnostic eval,18.0,96,3 - Results are based on a shorter time period than required.,01/01/2015,12/31/2015,-90.83237,35.229779,arkansas,17187,3779.0,22.3,0.2,Cross County
041308,MCGEHEE HOSPITAL,900 SOUTH THIRD STREET,MCGEHEE,AR,71654,DESHA,8702225600.0,Emergency Department,OP_20,Door to diagnostic eval,18.0,99,3 - Results are based on a shorter time period than required.,01/01/2015,12/31/2015,-91.38236,33.628723,arkansas,12215,3325.0,27.3,0.3,Desha County
041309,LAWRENCE MEMORIAL HOSPITAL,1309 WEST MAIN,WALNUT RIDGE,AR,72476,LAWRENCE,8708861200.0,Emergency Department,OP_20,Door to diagnostic eval,NA,Not Available,5 - Results are not available for this reporting period.,01/01/2015,12/31/2015,-90.94429,36.068015,arkansas,16985,3742.0,23.0,0.2,Lawrence County
041310,STONE COUNTY MEDICAL CENTER,2106 EAST MAIN STREET,MOUNTAIN VIEW,AR,72560,STONE,8702694361.0,Emergency Department,OP_20,Door to diagnostic eval,25.0,395,NA,01/01/2015,12/31/2015,-92.11108,35.863114,arkansas,12450,3010.0,24.4,0.2,Stone County
041311,HOWARD MEMORIAL HOSPITAL,130 MEDICAL CIRCLE,NASHVILLE,AR,71852,HOWARD,8708454400.0,Emergency Department,OP_20,Door to diagnostic eval,NA,Not Available,5 - Results are not available for this reporting period.,01/01/2015,12/31/2015,-93.85214,33.985613,arkansas,13460,2497.0,18.8,0.2,Howard County
041312,BAPTIST HEALTH MEDICAL CENTER HEBER SPINGS,1800 BYPASS ROAD,HEBER SPRINGS,AR,72543,CLEBURNE,5018873e3,Emergency Department,OP_20,Door to diagnostic eval,19.0,382,NA,01/01/2015,12/31/2015,-92.02327,35.489516,arkansas,25664,3831.0,15.2,0.1,Cleburne County
041313,OZARK HEALTH,2500 HIGHWAY 65 SOUTH,CLINTON,AR,72031,VANBUREN,5017457e3,Emergency Department,OP_20,Door to diagnostic eval,19.0,154,3 - Results are based on a shorter time period than required.,01/01/2015,12/31/2015,-92.48355,35.586064,arkansas,16880,3647.0,22.0,0.2,Van Buren County
041314,"DEWITT HOSPITAL & NURSING HOME, INC",1641 WHITEHEAD DRIVE,DE WITT,AR,72042,ARKANSAS,8709463571.0,Emergency Department,OP_20,Door to diagnostic eval,NA,Not Available,5 - Results are not available for this reporting period.,01/01/2015,12/31/2015,-91.32515,34.283347,arkansas,18564,3735.0,20.4,0.2,Arkansas County
041316,SOUTH MISSISSISSPI COUNTY REGIONAL MEDICAL CENTER,611 WEST LEE AVENUE,OSCEOLA,AR,72370,MISSISSIPPI,8705637e3,Emergency Department,OP_20,Door to diagnostic eval,NA,Not Available,5 - Results are not available for this reporting period.,01/01/2015,12/31/2015,-90.02631,35.696385,arkansas,44282,11744.0,27.1,0.3,Mississippi County
041317,DALLAS COUNTY MEDICAL CENTER,201 CLIFTON STREET,FORDYCE,AR,71742,DALLAS,8703526300.0,Emergency Department,OP_20,Door to diagnostic eval,NA,Not Available,5 - Results are not available for this reporting period.,01/01/2015,12/31/2015,-92.43421,33.834201,arkansas,7757,1544.0,21.0,0.2,Dallas County
041318,MERCY HOSPITAL BOONEVILLE,880 WEST MAIN,BOONEVILLE,AR,72927,LOGAN,4796752800.0,Emergency Department,OP_20,Door to diagnostic eval,NA,Not Available,5 - Results are not available for this reporting period.,01/01/2015,12/31/2015,-93.97531,35.105966,arkansas,21919,4532.0,21.1,0.2,Logan County
041319,"DE QUEEN MEDICAL CENTER, INC",1306 WEST COLLIN RAYE DRIVE,DE QUEEN,AR,71832,SEVIER,8705844111.0,Emergency Department,OP_20,Door to diagnostic eval,NA,Not Available,5 - Results are not available for this reporting period.,01/01/2015,12/31/2015,-94.33597,34.038226,arkansas,17388,3514.0,20.4,0.2,Sevier County
041320,LITTLE RIVER MEMORIAL HOSPITAL,451 WEST LOCKE STREET,ASHDOWN,AR,71822,LITTLERIVER,8708985011.0,Emergency Department,OP_20,Door to diagnostic eval,NA,Not Available,5 - Results are not available for this reporting period.,01/01/2015,12/31/2015,-94.13465,33.675597,arkansas,12531,2256.0,18.2,0.2,Little River County
041321,BAPTIST HEALTH MEDICAL CENTER-ARKADELPHIA,3050 TWIN RIVERS DRIVE,ARKADELPHIA,AR,71923,CLARK,8702452622.0,Emergency Department,OP_20,Door to diagnostic eval,14.0,378,NA,01/01/2015,12/31/2015,-93.05585,34.111837,arkansas,22699,4285.0,21.5,0.2,Clark County
041322,FULTON COUNTY HOSPITAL,679 NORTH MAIN STREET,SALEM,AR,72576,FULTON,8708952691.0,Emergency Department,OP_20,Door to diagnostic eval,NA,Not Available,5 - Results are not available for this reporting period.,01/01/2015,12/31/2015,-91.83303,36.359511,arkansas,12139,2700.0,22.6,0.2,Fulton County
041323,ASHLEY COUNTY MEDICAL CENTER,1015 UNITY ROAD,CROSSETT,AR,71635,ASHLEY,8703644111.0,Emergency Department,OP_20,Door to diagnostic eval,19.0,96,3 - Results are based on a shorter time period than required.,01/01/2015,12/31/2015,-91.97037,33.125032,arkansas,20926,4707.0,22.7,0.2,Ashley County
041324,CHI ST VINCENT MORRILTON,#4 HOSPITAL DRIVE,MORRILTON,AR,72110,CONWAY,5019772300.0,Emergency Department,OP_20,Door to diagnostic eval,NA,Not Available,5 - Results are not available for this reporting period.,01/01/2015,12/31/2015,-92.75858,35.156491,arkansas,21030,3797.0,18.3,0.2,Conway County
041326,DELTA MEMORIAL HOSPITAL,811 HIGHWAY 65 SOUTH,DUMAS,AR,71639,DESHA,8703824303.0,Emergency Department,OP_20,Door to diagnostic eval,NA,Not Available,5 - Results are not available for this reporting period.,01/01/2015,12/31/2015,-91.50041,33.900515,arkansas,12215,3325.0,27.3,0.3,Desha County
041327,BRADLEY COUNTY MEDICAL CENTER,404 SOUTH BRADLEY STREET,WARREN,AR,71671,BRADLEY,8702263731.0,Emergency Department,OP_20,Door to diagnostic eval,13.0,87,3 - Results are based on a shorter time period than required.,01/01/2015,12/31/2015,-92.08101,33.608004,arkansas,11061,3012.0,27.4,0.3,Bradley County
041328,CHICOT MEMORIAL MEDICAL CENTER,2729 SOUTH HIGHWAY 65 & 82,LAKE VILLAGE,AR,71653,CHICOT,8702655351.0,Emergency Department,OP_20,Door to diagnostic eval,18.0,380,3 - Results are based on a shorter time period than required.,01/01/2015,12/31/2015,-91.27133,33.351501,arkansas,11217,3357.0,32.1,0.3,Chicot County
041329,MERCY HOSPITAL BERRYVILLE,214 CARTER STREET,BERRYVILLE,AR,72616,CARROLL,8704233355.0,Emergency Department,OP_20,Door to diagnostic eval,19.0,390,NA,01/01/2015,12/31/2015,-93.56324,36.350821,arkansas,27722,4909.0,17.9,0.2,Carroll County
041330,PIGGOTT COMMUNITY HOSPITAL,1206 GORDON DUCKWORTH DRIVE,PIGGOTT,AR,72454,CLAY,8705983881.0,Emergency Department,OP_20,Door to diagnostic eval,NA,Not Available,5 - Results are not available for this reporting period.,01/01/2015,12/31/2015,-90.20277,36.393325,arkansas,15176,2981.0,19.9,0.2,Clay County
041331,OZARKS COMMUNITY HOSPITAL OF GRAVETTE,1101 JACKSON STREET SW,GRAVETTE,AR,72736,BENTON,4797875291.0,Emergency Department,OP_20,Door to diagnostic eval,10.0,284,3 - Results are based on a shorter time period than required.,01/01/2015,12/31/2015,-94.45226,36.412233,arkansas,242868,28436.0,11.9,0.1,Benton County
043300,ARKANSAS CHILDREN'S HOSPITAL,"1 CHILDREN'S WAY, SLOT 301",LITTLE ROCK,AR,72202,PULASKI,5013641100.0,Emergency Department,OP_20,Door to diagnostic eval,NA,Not Available,5 - Results are not available for this reporting period.,01/01/2015,12/31/2015,-92.27765,34.739224,arkansas,392490,61892.0,16.1,0.2,Pulaski County
050002,ST ROSE HOSPITAL,27200 CALAROGA AVE,HAYWARD,CA,94545,ALAMEDA,5107826200.0,Emergency Department,OP_20,Door to diagnostic eval,42.0,381,NA,01/01/2015,12/31/2015,-122.10418,37.635582,california,1612850,197984.0,12.5,0.1,Alameda County
050006,ST JOSEPH HOSPITAL,2700 DOLBEER ST,EUREKA,CA,95501,HUMBOLDT,7074458121.0,Emergency Department,OP_20,Door to diagnostic eval,70.0,429,NA,01/01/2015,12/31/2015,-124.16102,40.793739,california,134831,27609.0,21.0,0.2,Humboldt County
050007,MILLS-PENINSULA MEDICAL CENTER,1501 TROUSDALE DRIVE,BURLINGAME,CA,94010,SANMATEO,6506965270.0,Emergency Department,OP_20,Door to diagnostic eval,30.0,380,NA,01/01/2015,12/31/2015,-122.36332,37.574936,california,758333,56580.0,7.5,0.1,San Mateo County
050008,CALIFORNIA PACIFIC MEDICAL CTR-DAVIES CAMPUS HOSP,601 DUBOCE AVE,SAN FRANCISCO,CA,94117,SANFRANCISCO,4156006e3,Emergency Department,OP_20,Door to diagnostic eval,19.0,408,NA,01/01/2015,12/31/2015,-122.44276,37.770937000000004,california,852537,101313.0,12.1,0.1,San Francisco County
050009,QUEEN OF THE VALLEY MEDICAL CENTER,1000 TRANCAS ST,NAPA,CA,94558,NAPA,7072524411.0,Emergency Department,OP_20,Door to diagnostic eval,40.0,418,NA,01/01/2015,12/31/2015,-122.30027,38.337243,california,141551,12317.0,9.0,0.1,Napa County
050013,ST HELENA HOSPITAL,10 WOODLAND ROAD,SAINT HELENA,CA,94574,NAPA,7079633611.0,Emergency Department,OP_20,Door to diagnostic eval,4.0,382,NA,01/01/2015,12/31/2015,-122.45695,38.511241,california,141551,12317.0,9.0,0.1,Napa County
050014,SUTTER AMADOR HOSPITAL,200 MISSION BLVD,JACKSON,CA,95642,AMADOR,2092237500.0,Emergency Department,OP_20,Door to diagnostic eval,29.0,405,NA,01/01/2015,12/31/2015,-120.75324,38.359772,california,36744,4313.0,12.9,0.1,Amador County
050017,MERCY GENERAL HOSPITAL,4001 J ST,SACRAMENTO,CA,95819,SACRAMENTO,9164534545.0,Emergency Department,OP_20,Door to diagnostic eval,16.0,406,NA,01/01/2015,12/31/2015,-121.44099,38.568855,california,1481474,264955.0,18.1,0.2,Sacramento County
050018,PACIFIC ALLIANCE MEDICAL CENTER,531 W COLLEGE ST,LOS ANGELES,CA,90012,LOSANGELES,2136248411.0,Emergency Department,OP_20,Door to diagnostic eval,31.0,392,NA,01/01/2015,12/31/2015,-118.23944,34.061611,california,10109436,1863025.0,18.7,0.2,Los Angeles County
050022,RIVERSIDE COMMUNITY HOSPITAL,4445 MAGNOLIA AVENUE,RIVERSIDE,CA,92501,RIVERSIDE,9517883e3,Emergency Department,OP_20,Door to diagnostic eval,6.0,423,NA,01/01/2015,12/31/2015,-117.37074,33.991181,california,2328329,392706.0,17.1,0.2,Riverside County
050024,PARADISE VALLEY HOSPITAL,2400 EAST 4TH ST,NATIONAL CITY,CA,91950,SANDIEGO,6194704321.0,Emergency Department,OP_20,Door to diagnostic eval,62.0,453,NA,01/01/2015,12/31/2015,-117.09272,32.670903,california,3265700,467248.0,14.7,0.1,San Diego County
050025,UNIVERSITY OF CALIFORNIA SAN DIEGO MEDICAL CENTER,200 WEST ARBOR DRIVE,SAN DIEGO,CA,92103,SANDIEGO,6195436222.0,Emergency Department,OP_20,Door to diagnostic eval,27.0,384,NA,01/01/2015,12/31/2015,-117.16715,32.746018,california,3265700,467248.0,14.7,0.1,San Diego County
050026,GROSSMONT HOSPITAL,5555 GROSSMONT CENTER DRIVE BOX 58,LA MESA,CA,91942,SANDIEGO,6194650711.0,Emergency Department,OP_20,Door to diagnostic eval,94.0,342,NA,01/01/2015,12/31/2015,-117.0186,32.785,california,3265700,467248.0,14.7,0.1,San Diego County
050028,MAD RIVER COMMUNITY HOSPITAL,3800 JANES RD,ARCATA,CA,95521,HUMBOLDT,7078223621.0,Emergency Department,OP_20,Door to diagnostic eval,20.0,385,NA,01/01/2015,12/31/2015,-124.07519,40.867469,california,134831,27609.0,21.0,0.2,Humboldt County
050030,OROVILLE HOSPITAL,2767 OLIVE HIGHWAY,OROVILLE,CA,95966,BUTTE,5305338500.0,Emergency Department,OP_20,Door to diagnostic eval,61.0,379,NA,01/01/2015,12/31/2015,-121.49468,39.491076,california,224033,48151.0,21.9,0.2,Butte County
050036,BAKERSFIELD MEMORIAL HOSPITAL,420 34TH ST BOX 1888,BAKERSFIELD,CA,93301,KERN,6613271792.0,Emergency Department,OP_20,Door to diagnostic eval,18.0,404,NA,01/01/2015,12/31/2015,-119.01935,35.381408,california,874190,206604.0,24.5,0.2,Kern County
050038,SANTA CLARA VALLEY MEDICAL CENTER,751 SOUTH BASCOM AVENUE,SAN JOSE,CA,95128,SANTACLARA,4088855e3,Emergency Department,OP_20,Door to diagnostic eval,18.0,379,NA,01/01/2015,12/31/2015,-121.93555,37.316983,california,1896040,159553.0,8.5,0.1,Santa Clara County
050039,ENLOE MEDICAL CENTER,1531 ESPLANADE,CHICO,CA,95926,BUTTE,5303327300.0,Emergency Department,OP_20,Door to diagnostic eval,22.0,401,NA,01/01/2015,12/31/2015,-121.84259,39.745973,california,224033,48151.0,21.9,0.2,Butte County
050040,LAC/OLIVE VIEW-UCLA MEDICAL CENTER,14445 OLIVE VIEW DRIVE,SYLMAR,CA,91342,LOSANGELES,8183641555.0,Emergency Department,OP_20,Door to diagnostic eval,44.0,352,NA,01/01/2015,12/31/2015,-118.42904,34.307877,california,10109436,1863025.0,18.7,0.2,Los Angeles County
050042,ST ELIZABETH COMMUNITY HOSPITAL,2550 SISTER MARY COLUMBA DRIVE,RED BLUFF,CA,96080,TEHAMA,5305298012.0,Emergency Department,OP_20,Door to diagnostic eval,9.0,412,NA,01/01/2015,12/31/2015,-122.24074,40.183837,california,62961,11358.0,18.2,0.2,Tehama County
050043,ALTA BATES SUMMIT MEDICAL CENTER,350 HAWTHORNE AVENUE,OAKLAND,CA,94609,ALAMEDA,5106554e3,Emergency Department,OP_20,Door to diagnostic eval,36.0,404,NA,01/01/2015,12/31/2015,-122.264,37.834926,california,1612850,197984.0,12.5,0.1,Alameda County
050045,EL CENTRO REGIONAL MEDICAL CENTER,1415 ROSS AVENUE,EL CENTRO,CA,92243,IMPERIAL,7603397100.0,Emergency Department,OP_20,Door to diagnostic eval,26.0,480,NA,01/01/2015,12/31/2015,-115.57746,32.783359,california,179332,40162.0,23.6,0.2,Imperial County
050047,CALIFORNIA PACIFIC MEDICAL CTR-PACIFIC CAMPUS HOSP,2333 BUCHANAN STREET,SAN FRANCISCO,CA,94115,SANFRANCISCO,4156006e3,Emergency Department,OP_20,Door to diagnostic eval,23.0,406,NA,01/01/2015,12/31/2015,-122.43736,37.786129,california,852537,101313.0,12.1,0.1,San Francisco County
050054,SAN GORGONIO MEMORIAL HOSPITAL,600 NORTH HIGHLAND SPRINGS AVENUE,BANNING,CA,92220,RIVERSIDE,9518451121.0,Emergency Department,OP_20,Door to diagnostic eval,40.0,508,NA,01/01/2015,12/31/2015,-116.87897,33.920803,california,2328329,392706.0,17.1,0.2,Riverside County
050055,CALIFORNIA PACIFIC MEDICAL CTR - ST. LUKE'S CAMPUS,3555 CESAR CHAVEZ STREET,SAN FRANCISCO,CA,94110,SANFRANCISCO,4156416562.0,Emergency Department,OP_20,Door to diagnostic eval,40.0,406,NA,01/01/2015,12/31/2015,-122.41545,37.74873,california,852537,101313.0,12.1,0.1,San Francisco County
050056,ANTELOPE VALLEY HOSPITAL,1600 W AVE J,LANCASTER,CA,93534,LOSANGELES,6619495e3,Emergency Department,OP_20,Door to diagnostic eval,54.0,527,NA,01/01/2015,12/31/2015,-118.15015,34.698696,california,10109436,1863025.0,18.7,0.2,Los Angeles County
050057,KAWEAH DELTA MEDICAL CENTER,400 W MINERAL KING AVE,VISALIA,CA,93291,TULARE,5596242e3,Emergency Department,OP_20,Door to diagnostic eval,17.0,546,NA,01/01/2015,12/31/2015,-119.33655,36.351009,california,457260,127305.0,28.1,0.3,Tulare County
050058,GLENDALE MEM HOSPITAL & HLTH CENTER,1420 S CENTRAL AVE,GLENDALE,CA,91204,LOSANGELES,8185021900.0,Emergency Department,OP_20,Door to diagnostic eval,13.0,404,NA,01/01/2015,12/31/2015,-118.25948,34.135259,california,10109436,1863025.0,18.7,0.2,Los Angeles County
050060,COMMUNITY REGIONAL MEDICAL CENTER,2823 FRESNO STREET,FRESNO,CA,93721,FRESNO,5594596e3,Emergency Department,OP_20,Door to diagnostic eval,34.0,366,NA,01/01/2015,12/31/2015,-119.78473,36.733193,california,964983,261387.0,27.5,0.3,Fresno County
050063,HOLLYWOOD PRESBYTERIAN MEDICAL CENTER,1300 N VERMONT AVE,LOS ANGELES,CA,90027,LOSANGELES,2134133e3,Emergency Department,OP_20,Door to diagnostic eval,38.0,274,NA,01/01/2015,12/31/2015,-118.28842,34.111208,california,10109436,1863025.0,18.7,0.2,Los Angeles County
050067,OAK VALLEY HOSPITAL DISTRICT,350 S OAK AVE,OAKDALE,CA,95361,STANISLAUS,2098473011.0,Emergency Department,OP_20,Door to diagnostic eval,39.0,310,NA,01/01/2015,12/31/2015,-120.84756,37.776528,california,531951,95456.0,18.1,0.2,Stanislaus County
050069,ST JOSEPH HOSPITAL,1100 WEST STEWART DR,ORANGE,CA,92868,ORANGE,7146339111.0,Emergency Department,OP_20,Door to diagnostic eval,44.0,384,NA,01/01/2015,12/31/2015,-117.87494,33.787266,california,3144961,400252.0,12.9,0.1,Orange County
050070,KAISER FOUNDATION HOSPITAL - SOUTH SAN FRANCISCO,1200 EL CAMINO REAL,SOUTH SAN FRANCISCO,CA,94080,SANMATEO,6507423200.0,Emergency Department,OP_20,Door to diagnostic eval,NA,Not Available,5 - Results are not available for this reporting period.,01/01/2015,12/31/2015,-122.4301,37.652857,california,758333,56580.0,7.5,0.1,San Mateo County
050071,KAISER FOUNDATION HOSPITAL-SANTA CLARA,700 LAWRENCE EXPRESSWAY,SANTA CLARA,CA,95051,SANTACLARA,4082366400.0,Emergency Department,OP_20,Door to diagnostic eval,NA,Not Available,5 - Results are not available for this reporting period.,01/01/2015,12/31/2015,-121.9846,37.346241,california,1896040,159553.0,8.5,0.1,Santa Clara County
050072,KAISER FOUNDATION HOSPITAL - WALNUT CREEK,1425 S MAIN STREET,WALNUT CREEK,CA,94596,CONTRACOSTA,9252954e3,Emergency Department,OP_20,Door to diagnostic eval,NA,Not Available,5 - Results are not available for this reporting period.,01/01/2015,12/31/2015,-122.05858,37.905924,california,1111710,115466.0,10.5,0.1,Contra Costa County
050073,KAISER FOUNDATION HOSPITAL AND REHAB CENTER,975 SERENO DR,VALLEJO,CA,94589,SOLANO,7076511e3,Emergency Department,OP_20,Door to diagnostic eval,NA,Not Available,5 - Results are not available for this reporting period.,01/01/2015,12/31/2015,-122.25074,38.152068,california,430791,51638.0,12.3,0.1,Solano County
050075,KAISER FOUNDATION HOSPITAL - OAKLAND/RICHMOND,275 W MACARTHUR BOULEVARD,OAKLAND,CA,94611,ALAMEDA,5107521e3,Emergency Department,OP_20,Door to diagnostic eval,NA,Not Available,5 - Results are not available for this reporting period.,01/01/2015,12/31/2015,-122.22289,37.827126,california,1612850,197984.0,12.5,0.1,Alameda County
050076,KAISER FOUNDATION HOSPITAL - SAN FRANCISCO,2425 GEARY BLVD,SAN FRANCISCO,CA,94115,SANFRANCISCO,4158332646.0,Emergency Department,OP_20,Door to diagnostic eval,NA,Not Available,5 - Results are not available for this reporting period.,01/01/2015,12/31/2015,-122.43736,37.786129,california,852537,101313.0,12.1,0.1,San Francisco County
050077,SCRIPPS MERCY HOSPITAL,4077 5TH AVE,SAN DIEGO,CA,92103,SANDIEGO,6192948111.0,Emergency Department,OP_20,Door to diagnostic eval,33.0,387,NA,01/01/2015,12/31/2015,-117.16715,32.746018,california,3265700,467248.0,14.7,0.1,San Diego County
050078,PROVIDENCE LITTLE CO OF MARY MED CTR SAN PEDRO,1300 W 7TH ST,SAN PEDRO,CA,90732,LOSANGELES,3108323311.0,Emergency Department,OP_20,Door to diagnostic eval,28.0,408,NA,01/01/2015,12/31/2015,-118.31123,33.736718,california,10109436,1863025.0,18.7,0.2,Los Angeles County
050082,ST JOHNS REGIONAL MEDICAL CENTER,1600 N ROSE AVE,OXNARD,CA,93030,VENTURA,8059882500.0,Emergency Department,OP_20,Door to diagnostic eval,9.0,409,NA,01/01/2015,12/31/2015,-119.1769,34.21707,california,846119,95912.0,11.5,0.1,Ventura County
050084,ST JOSEPH'S MEDICAL CENTER OF STOCKTON,1800 N CALIFORNIA ST,STOCKTON,CA,95204,SANJOAQUIN,2099432e3,Emergency Department,OP_20,Door to diagnostic eval,27.0,409,NA,01/01/2015,12/31/2015,-121.3147,37.974273,california,715114,145167.0,20.7,0.2,San Joaquin County
050089,COMMUNITY HOSPITAL OF SAN BERNARDINO,1805 MEDICAL CENTER DRIVE,SAN BERNARDINO,CA,92411,SANBERNARDINO,9098876333.0,Emergency Department,OP_20,Door to diagnostic eval,20.0,406,NA,01/01/2015,12/31/2015,-117.3176,34.12051,california,2110386,422405.0,20.4,0.2,San Bernardino County
050090,SONOMA VALLEY HOSPITAL,347 ANDRIEUX ST,SONOMA,CA,95476,SONOMA,7079355e3,Emergency Department,OP_20,Door to diagnostic eval,15.0,395,NA,01/01/2015,12/31/2015,-122.47058,38.277147,california,499674,55742.0,11.3,0.1,Sonoma County
050091,COMMUNITY HOSPITAL OF HUNTINGTON PARK,2623 E SLAUSON AVE,HUNTINGTON PARK,CA,90255,LOSANGELES,3235831931.0,Emergency Department,OP_20,Door to diagnostic eval,86.0,530,NA,01/01/2015,12/31/2015,-118.21773,33.978404,california,10109436,1863025.0,18.7,0.2,Los Angeles County
050093,SAINT AGNES MEDICAL CENTER,1303 E HERNDON AVE,FRESNO,CA,93710,FRESNO,5594503e3,Emergency Department,OP_20,Door to diagnostic eval,45.0,413,NA,01/01/2015,12/31/2015,-119.76358,36.825582,california,964983,261387.0,27.5,0.3,Fresno County
050096,WEST COVINA MEDICAL CENTER,725 S ORANGE AVE,WEST COVINA,CA,91790,LOSANGELES,6263388481.0,Emergency Department,OP_20,Door to diagnostic eval,NA,Not Available,5 - Results are not available for this reporting period.,01/01/2015,12/31/2015,-117.93835,34.068059,california,10109436,1863025.0,18.7,0.2,Los Angeles County
050099,SAN ANTONIO REGIONAL HOSPITAL,999 SAN BERNARDINO ROAD,UPLAND,CA,91786,SANBERNARDINO,7149852811.0,Emergency Department,OP_20,Door to diagnostic eval,96.0,402,NA,01/01/2015,12/31/2015,-117.65776,34.101659,california,2110386,422405.0,20.4,0.2,San Bernardino County
050100,SHARP MEMORIAL HOSPITAL,7901 FROST ST,SAN DIEGO,CA,92123,SANDIEGO,8589393400.0,Emergency Department,OP_20,Door to diagnostic eval,37.0,456,NA,01/01/2015,12/31/2015,-117.13595,32.803799,california,3265700,467248.0,14.7,0.1,San Diego County
050101,SUTTER SOLANO MEDICAL CENTER,300 HOSPITAL DR,VALLEJO,CA,94589,SOLANO,7075545280.0,Emergency Department,OP_20,Door to diagnostic eval,26.0,405,NA,01/01/2015,12/31/2015,-122.25074,38.152068,california,430791,51638.0,12.3,0.1,Solano County
050102,PARKVIEW COMMUNITY HOSPITAL MEDICAL CENTER,3865 JACKSON STREET,RIVERSIDE,CA,92503,RIVERSIDE,9516882211.0,Emergency Department,OP_20,Door to diagnostic eval,42.0,782,NA,01/01/2015,12/31/2015,-117.46052,33.91355,california,2328329,392706.0,17.1,0.2,Riverside County
050103,WHITE MEMORIAL MEDICAL CENTER,1720 E CESAR AVENUE,LOS ANGELES,CA,90033,LOSANGELES,3232685e3,Emergency Department,OP_20,Door to diagnostic eval,17.0,383,NA,01/01/2015,12/31/2015,-118.21195,34.050411,california,10109436,1863025.0,18.7,0.2,Los Angeles County
050104,SAINT FRANCIS MEDICAL CENTER,3630 EAST IMPERIAL HIGHWAY,LYNWOOD,CA,90262,LOSANGELES,3109008900.0,Emergency Department,OP_20,Door to diagnostic eval,54.0,398,NA,01/01/2015,12/31/2015,-118.20186,33.924642,california,10109436,1863025.0,18.7,0.2,Los Angeles County
050107,MARIAN REGIONAL MEDICAL CENTER,1400 E CHURCH ST,SANTA MARIA,CA,93454,SANTABARBARA,8057393e3,Emergency Department,OP_20,Door to diagnostic eval,16.0,816,NA,01/01/2015,12/31/2015,-120.34876,34.900809,california,441228,73600.0,17.4,0.2,Santa Barbara County
050108,"SUTTER MEDICAL CENTER, SACRAMENTO",2825 CAPITOL AVENUE,SACRAMENTO,CA,95816,SACRAMENTO,9167338999.0,Emergency Department,OP_20,Door to diagnostic eval,18.0,405,NA,01/01/2015,12/31/2015,-121.46827,38.571661,california,1481474,264955.0,18.1,0.2,Sacramento County
050110,LOMPOC VALLEY MEDICAL CENTER,1515 E OCEAN AVENUE,LOMPOC,CA,93436,SANTABARBARA,8057373300.0,Emergency Department,OP_20,Door to diagnostic eval,49.0,387,NA,01/01/2015,12/31/2015,-120.4471,34.639682,california,441228,73600.0,17.4,0.2,Santa Barbara County
050112,SANTA MONICA - UCLA MED CTR & ORTHOPAEDIC HOSPITAL,1250 16TH STREET,SANTA MONICA,CA,90404,LOSANGELES,3103194e3,Emergency Department,OP_20,Door to diagnostic eval,32.0,382,NA,01/01/2015,12/31/2015,-118.47432,34.026959,california,10109436,1863025.0,18.7,0.2,Los Angeles County
050113,SAN MATEO MEDICAL CENTER,222 W 39TH AVE,SAN MATEO,CA,94403,SANMATEO,6505732222.0,Emergency Department,OP_20,Door to diagnostic eval,81.0,235,NA,01/01/2015,12/31/2015,-122.30266,37.539686,california,758333,56580.0,7.5,0.1,San Mateo County
050115,PALOMAR HEALTH DOWNTOWN CAMPUS,555 E VALLEY PARKWAY,ESCONDIDO,CA,92025,SANDIEGO,7607393e3,Emergency Department,OP_20,Door to diagnostic eval,41.0,499,NA,01/01/2015,12/31/2015,-117.07077,33.106862,california,3265700,467248.0,14.7,0.1,San Diego County
050116,NORTHRIDGE HOSPITAL MEDICAL CENTER,18300 ROSCOE BLVD,NORTHRIDGE,CA,91325,LOSANGELES,8188858500.0,Emergency Department,OP_20,Door to diagnostic eval,19.0,409,NA,01/01/2015,12/31/2015,-118.51766,34.235055,california,10109436,1863025.0,18.7,0.2,Los Angeles County
050118,DOCTORS HOSPITAL OF MANTECA,1205 E NORTH STREET,MANTECA,CA,95336,SANJOAQUIN,2098233111.0,Emergency Department,OP_20,Door to diagnostic eval,45.0,438,NA,01/01/2015,12/31/2015,-121.21416,37.812815,california,715114,145167.0,20.7,0.2,San Joaquin County
050121,ADVENTIST MEDICAL CENTER,115 MALL DRIVE,HANFORD,CA,93230,KINGS,2094107200.0,Emergency Department,OP_20,Door to diagnostic eval,16.0,830,NA,01/01/2015,12/31/2015,-119.6451,36.327063,california,150108,33174.0,24.9,0.2,Kings County
050122,DAMERON HOSPITAL,525 WEST ACACIA STREET,STOCKTON,CA,95203,SANJOAQUIN,2099445550.0,Emergency Department,OP_20,Door to diagnostic eval,30.0,499,NA,01/01/2015,12/31/2015,-121.30735,37.954823,california,715114,145167.0,20.7,0.2,San Joaquin County
050124,USC VERDUGO HILLS HOSPITAL,1812 VERDUGO BLVD,GLENDALE,CA,91209,LOSANGELES,8187907100.0,Emergency Department,OP_20,Door to diagnostic eval,24.0,348,NA,01/01/2015,12/31/2015,-118.298662,33.786594,california,10109436,1863025.0,18.7,0.2,Los Angeles County
050125,REGIONAL MEDICAL CENTER OF SAN JOSE,225 N JACKSON AVENUE,SAN JOSE,CA,95116,SANTACLARA,4082595e3,Emergency Department,OP_20,Door to diagnostic eval,6.0,491,NA,01/01/2015,12/31/2015,-121.8544,37.34964,california,1896040,159553.0,8.5,0.1,Santa Clara County
050126,VALLEY PRESBYTERIAN HOSPITAL,15107 VANOWEN ST,VAN NUYS,CA,91406,LOSANGELES,8187826600.0,Emergency Department,OP_20,Door to diagnostic eval,27.0,752,NA,01/01/2015,12/31/2015,-118.49376,34.201491,california,10109436,1863025.0,18.7,0.2,Los Angeles County
050127,WOODLAND MEMORIAL HOSPITAL,1325 COTTONWOOD STREET,WOODLAND,CA,95695,YOLO,5306623961.0,Emergency Department,OP_20,Door to diagnostic eval,9.0,408,NA,01/01/2015,12/31/2015,-121.80944,38.697238,california,209250,39493.0,19.5,0.2,Yolo County
050128,TRI-CITY MEDICAL CENTER,4002 VISTA WAY,OCEANSIDE,CA,92056,SANDIEGO,7607248411.0,Emergency Department,OP_20,Door to diagnostic eval,47.0,381,NA,01/01/2015,12/31/2015,-117.28232,33.195354,california,3265700,467248.0,14.7,0.1,San Diego County
050129,ST BERNARDINE MEDICAL CENTER,2101 N WATERMAN AVE,SAN BERNARDINO,CA,92404,SANBERNARDINO,9098838711.0,Emergency Department,OP_20,Door to diagnostic eval,22.0,351,NA,01/01/2015,12/31/2015,-117.26298,34.14856,california,2110386,422405.0,20.4,0.2,San Bernardino County
050131,NOVATO COMMUNITY HOSPITAL,180 ROWLAND WAY,NOVATO,CA,94945,MARIN,4152091300.0,Emergency Department,OP_20,Door to diagnostic eval,18.0,409,NA,01/01/2015,12/31/2015,-122.56316,38.117065,california,260550,22272.0,8.8,0.1,Marin County
050132,SAN GABRIEL VALLEY MEDICAL CENTER,438 W LAS TUNAS DRIVE,SAN GABRIEL,CA,91776,LOSANGELES,6262895454.0,Emergency Department,OP_20,Door to diagnostic eval,28.0,385,NA,01/01/2015,12/31/2015,-118.0951,34.089059,california,10109436,1863025.0,18.7,0.2,Los Angeles County
050133,RIDEOUT MEMORIAL HOSPITAL,726 4TH ST,MARYSVILLE,CA,95901,YUBA,5307494300.0,Emergency Department,OP_20,Door to diagnostic eval,7.0,406,NA,01/01/2015,12/31/2015,-121.53735,39.15973,california,73883,15693.0,21.6,0.2,Yuba County
050135,SOUTHERN CALIFORNIA HOSPITAL AT HOLLYWOOD,6245 DE LONGPRE AVE,HOLLYWOOD,CA,90028,LOSANGELES,3234622271.0,Emergency Department,OP_20,Door to diagnostic eval,38.0,379,NA,01/01/2015,12/31/2015,-118.32745,34.098859,california,10109436,1863025.0,18.7,0.2,Los Angeles County
050136,PETALUMA VALLEY HOSPITAL,400 N MCDOWELL BLVD,PETALUMA,CA,94954,SONOMA,7077781111.0,Emergency Department,OP_20,Door to diagnostic eval,30.0,382,NA,01/01/2015,12/31/2015,-122.6069,38.243299,california,499674,55742.0,11.3,0.1,Sonoma County
050137,KAISER FOUNDATION HOSPITAL - PANORAMA CITY,13652 CANTARA ST,PANORAMA CITY,CA,91402,LOSANGELES,8183753333.0,Emergency Department,OP_20,Door to diagnostic eval,NA,Not Available,5 - Results are not available for this reporting period.,01/01/2015,12/31/2015,-118.44322,34.223753,california,10109436,1863025.0,18.7,0.2,Los Angeles County
050138,KAISER FOUNDATION HOSPITAL - LOS ANGELES,4867 SUNSET BLVD,LOS ANGELES,CA,90027,LOSANGELES,3237834011.0,Emergency Department,OP_20,Door to diagnostic eval,NA,Not Available,5 - Results are not available for this reporting period.,01/01/2015,12/31/2015,-118.28842,34.111208,california,10109436,1863025.0,18.7,0.2,Los Angeles County
050139,KAISER FOUNDATION HOSPITAL - DOWNEY,9333 IMPERIAL HIGHWAY,DOWNEY,CA,90242,LOSANGELES,5624616007.0,Emergency Department,OP_20,Door to diagnostic eval,NA,Not Available,5 - Results are not available for this reporting period.,01/01/2015,12/31/2015,-118.14291,33.92018,california,10109436,1863025.0,18.7,0.2,Los Angeles County
050140,KAISER FOUNDATION HOSPITAL FONTANA,9961 SIERRA AVE,FONTANA,CA,92335,SANBERNARDINO,9094275500.0,Emergency Department,OP_20,Door to diagnostic eval,NA,Not Available,5 - Results are not available for this reporting period.,01/01/2015,12/31/2015,-117.45213,34.088911,california,2110386,422405.0,20.4,0.2,San Bernardino County
050145,COMMUNITY HOSPITAL OF THE MONTEREY PENINSULA,23625 W R HOLMAN HIGHWAY,MONTEREY,CA,93940,MONTEREY,8316245311.0,Emergency Department,OP_20,Door to diagnostic eval,42.0,382,NA,01/01/2015,12/31/2015,-121.88667,36.586193,california,431293,70259.0,17.0,0.2,Monterey County
050149,CALIFORNIA HOSPITAL MEDICAL CENTER LA,1401 SOUTH GRAND AVENUE,LOS ANGELES,CA,90015,LOSANGELES,2137482411.0,Emergency Department,OP_20,Door to diagnostic eval,21.0,408,NA,01/01/2015,12/31/2015,-118.26516,34.038993,california,10109436,1863025.0,18.7,0.2,Los Angeles County
050150,SIERRA NEVADA MEMORIAL HOSPITAL,155 GLASSON WAY,GRASS VALLEY,CA,95945,NEVADA,5302746e3,Emergency Department,OP_20,Door to diagnostic eval,14.0,419,NA,01/01/2015,12/31/2015,-121.02076,39.202725,california,98763,11193.0,11.4,0.1,Nevada County
050152,SAINT FRANCIS MEMORIAL HOSPITAL,900 HYDE ST,SAN FRANCISCO,CA,94109,SANFRANCISCO,4153536e3,Emergency Department,OP_20,Door to diagnostic eval,14.0,409,NA,01/01/2015,12/31/2015,-122.42188,37.792778,california,852537,101313.0,12.1,0.1,San Francisco County
050153,O'CONNOR HOSPITAL,2105 FOREST AVENUE,SAN JOSE,CA,95128,SANTACLARA,4089472500.0,Emergency Department,OP_20,Door to diagnostic eval,13.0,381,NA,01/01/2015,12/31/2015,-121.93555,37.316983,california,1896040,159553.0,8.5,0.1,Santa Clara County
050158,ENCINO HOSPITAL MEDICAL CENTER,16237 VENTURA BLVD,ENCINO,CA,91436,LOSANGELES,8189955e3,Emergency Department,OP_20,Door to diagnostic eval,4.0,648,NA,01/01/2015,12/31/2015,-118.48925,34.155625,california,10109436,1863025.0,18.7,0.2,Los Angeles County
050159,VENTURA COUNTY MEDICAL CENTER,3291 LOMA VISTA RD,VENTURA,CA,93003,VENTURA,8056526075.0,Emergency Department,OP_20,Door to diagnostic eval,40.0,1272,NA,01/01/2015,12/31/2015,-119.2249,34.268736,california,846119,95912.0,11.5,0.1,Ventura County
050167,SAN JOAQUIN GENERAL HOSPITAL,500 W HOSPITAL ROAD,FRENCH CAMP,CA,95231,SANJOAQUIN,2094686e3,Emergency Department,OP_20,Door to diagnostic eval,57.0,395,NA,01/01/2015,12/31/2015,-121.27978,37.882742,california,715114,145167.0,20.7,0.2,San Joaquin County
050168,ST JUDE MEDICAL CENTER,101 E VALENCIA MESA DRIVE,FULLERTON,CA,92835,ORANGE,7149923e3,Emergency Department,OP_20,Door to diagnostic eval,29.0,405,NA,01/01/2015,12/31/2015,-117.91224,33.903164,california,3144961,400252.0,12.9,0.1,Orange County
050169,PRESBYTERIAN INTERCOMMUNITY HOSPITAL,12401 WASHINGTON BLVD,WHITTIER,CA,90602,LOSANGELES,5266980811.0,Emergency Department,OP_20,Door to diagnostic eval,7.0,418,NA,01/01/2015,12/31/2015,-118.03384,33.967562,california,10109436,1863025.0,18.7,0.2,Los Angeles County
050174,SANTA ROSA MEMORIAL HOSPITAL,1165 MONTGOMERY DR,SANTA ROSA,CA,95405,SONOMA,7075255300.0,Emergency Department,OP_20,Door to diagnostic eval,42.0,382,NA,01/01/2015,12/31/2015,-122.67419,38.438161,california,499674,55742.0,11.3,0.1,Sonoma County
050179,EMANUEL MEDICAL CENTER,825 DELBON AVE,TURLOCK,CA,95382,STANISLAUS,2096674200.0,Emergency Department,OP_20,Door to diagnostic eval,37.0,471,NA,01/01/2015,12/31/2015,-120.8516,37.523901,california,531951,95456.0,18.1,0.2,Stanislaus County
050180,JOHN MUIR MEDICAL CENTER - WALNUT CREEK CAMPUS,1601 YGNACIO VALLEY RD,WALNUT CREEK,CA,94598,CONTRACOSTA,9259393e3,Emergency Department,OP_20,Door to diagnostic eval,22.0,405,NA,01/01/2015,12/31/2015,-122.02618,37.91878,california,1111710,115466.0,10.5,0.1,Contra Costa County
050189,GEORGE L MEE MEMORIAL HOSPITAL,300 CANAL STREET,KING CITY,CA,93930,MONTEREY,8313856e3,Emergency Department,OP_20,Door to diagnostic eval,35.0,394,NA,01/01/2015,12/31/2015,-121.05986,36.21106,california,431293,70259.0,17.0,0.2,Monterey County
050191,ST MARY MEDICAL CENTER,1050 LINDEN AVE,LONG BEACH,CA,90813,LOSANGELES,5624919e3,Emergency Department,OP_20,Door to diagnostic eval,17.0,392,NA,01/01/2015,12/31/2015,-118.19197,33.781011,california,10109436,1863025.0,18.7,0.2,Los Angeles County
050192,ADVENTIST MEDICAL CENTER - REEDLEY,372 W CYPRESS AVE,REEDLEY,CA,93654,FRESNO,5596388155.0,Emergency Department,OP_20,Door to diagnostic eval,17.0,418,NA,01/01/2015,12/31/2015,-119.43761,36.608675,california,964983,261387.0,27.5,0.3,Fresno County
050194,WATSONVILLE COMMUNITY HOSPITAL,75 NIELSON STREET,WATSONVILLE,CA,95076,SANTACRUZ,8317244741.0,Emergency Department,OP_20,Door to diagnostic eval,21.0,424,NA,01/01/2015,12/31/2015,-121.77224,36.922902,california,271401,42076.0,16.1,0.2,Santa Cruz County
050195,WASHINGTON HOSPITAL,2000 MOWRY AVE,FREMONT,CA,94538,ALAMEDA,5107971111.0,Emergency Department,OP_20,Door to diagnostic eval,31.0,403,NA,01/01/2015,12/31/2015,-121.9679,37.527237,california,1612850,197984.0,12.5,0.1,Alameda County
050196,ADVENTIST MEDICAL CENTER - CENTRAL VALLEY,1025 N DOUTY ST,HANFORD,CA,93230,KINGS,5595832100.0,Emergency Department,OP_20,Door to diagnostic eval,NA,Not Available,5 - Results are not available for this reporting period.,01/01/2015,12/31/2015,-119.6451,36.327063,california,150108,33174.0,24.9,0.2,Kings County
050197,SEQUOIA HOSPITAL,170 ALAMEDA DE LAS PULGAS,REDWOOD CITY,CA,94062,SANMATEO,6503675551.0,Emergency Department,OP_20,Door to diagnostic eval,13.0,412,NA,01/01/2015,12/31/2015,-122.26253,37.444879,california,758333,56580.0,7.5,0.1,San Mateo County
050204,PALMDALE REGIONAL MEDICAL CENTER,38600 MEDICAL CENTER DRIVE,PALMDALE,CA,93552,LOSANGELES,6613825e3,Emergency Department,OP_20,Door to diagnostic eval,56.0,408,NA,01/01/2015,12/31/2015,-118.0375,34.561207,california,10109436,1863025.0,18.7,0.2,Los Angeles County
050205,GLENDORA COMMUNITY HOSPITAL,150 WEST ROUTE 66,GLENDORA,CA,91740,LOSANGELES,6263350231.0,Emergency Department,OP_20,Door to diagnostic eval,15.0,252,NA,01/01/2015,12/31/2015,-117.8548,34.119245,california,10109436,1863025.0,18.7,0.2,Los Angeles County
050211,ALAMEDA HOSPITAL,2070 CLINTON AVENUE,ALAMEDA,CA,94501,ALAMEDA,5105223700.0,Emergency Department,OP_20,Door to diagnostic eval,29.0,395,NA,01/01/2015,12/31/2015,-122.25937,37.769528,california,1612850,197984.0,12.5,0.1,Alameda County
050222,SHARP CHULA VISTA MEDICAL CENTER,751 MEDICAL CENTER COURT,CHULA VISTA,CA,91911,SANDIEGO,6195025800.0,Emergency Department,OP_20,Door to diagnostic eval,92.0,306,NA,01/01/2015,12/31/2015,-117.0607,32.608799,california,3265700,467248.0,14.7,0.1,San Diego County
050224,HOAG MEMORIAL HOSPITAL PRESBYTERIAN,ONE HOAG DRIVE,NEWPORT BEACH,CA,92663,ORANGE,9497644624.0,Emergency Department,OP_20,Door to diagnostic eval,46.0,182,NA,01/01/2015,12/31/2015,-117.93087,33.619221,california,3144961,400252.0,12.9,0.1,Orange County
050225,FEATHER RIVER HOSPITAL,5974 PENTZ ROAD,PARADISE,CA,95969,BUTTE,5308779361.0,Emergency Department,OP_20,Door to diagnostic eval,24.0,399,NA,01/01/2015,12/31/2015,-121.61026,39.750422,california,224033,48151.0,21.9,0.2,Butte County
050226,AHMC ANAHEIM REGIONAL MEDICAL CENTER,1111 W LA PALMA AVENUE,ANAHEIM,CA,92801,ORANGE,7147741450.0,Emergency Department,OP_20,Door to diagnostic eval,54.0,341,NA,01/01/2015,12/31/2015,-117.95381,33.844814,california,3144961,400252.0,12.9,0.1,Orange County
050228,SAN FRANCISCO GENERAL HOSPITAL,1001 POTRERO AVENUE,SAN FRANCISCO,CA,94110,SANFRANCISCO,4152068e3,Emergency Department,OP_20,Door to diagnostic eval,40.0,378,NA,01/01/2015,12/31/2015,-122.41545,37.74873,california,852537,101313.0,12.1,0.1,San Francisco County
050230,GARDEN GROVE HOSPITAL & MEDICAL CENTER,12601 GARDEN GROVE BLVD,GARDEN GROVE,CA,92843,ORANGE,7145375160.0,Emergency Department,OP_20,Door to diagnostic eval,26.0,523,NA,01/01/2015,12/31/2015,-117.9355,33.763033,california,3144961,400252.0,12.9,0.1,Orange County
050231,POMONA VALLEY HOSPITAL MEDICAL CENTER,1798 N GAREY AVE,POMONA,CA,91767,LOSANGELES,9098659500.0,Emergency Department,OP_20,Door to diagnostic eval,39.0,439,NA,01/01/2015,12/31/2015,-117.73861,34.080143,california,10109436,1863025.0,18.7,0.2,Los Angeles County
050232,FRENCH HOSPITAL MEDICAL CENTER,1911 JOHNSON AVE,SAN LUIS OBISPO,CA,93401,SANLUISOBISPO,8055435353.0,Emergency Department,OP_20,Door to diagnostic eval,10.0,406,NA,01/01/2015,12/31/2015,-120.65196,35.262548,california,279116,38048.0,14.5,0.1,San Luis Obispo County
050234,SHARP CORONADO HOSPITAL AND HLTHCR CTR,250 PROSPECT PLACE,CORONADO,CA,92118,SANDIEGO,6194356251.0,Emergency Department,OP_20,Door to diagnostic eval,34.0,368,NA,01/01/2015,12/31/2015,-117.17441,32.682727,california,3265700,467248.0,14.7,0.1,San Diego County
050235,PROVIDENCE SAINT JOSEPH MEDICAL CTR,501 SOUTH BUENA VISTA,BURBANK,CA,91505,LOSANGELES,8188435111.0,Emergency Department,OP_20,Door to diagnostic eval,37.0,582,NA,01/01/2015,12/31/2015,-118.34366,34.166906,california,10109436,1863025.0,18.7,0.2,Los Angeles County
050236,SIMI VALLEY HOSPITAL & HEALTH CARE SERVICES,2975 N SYCAMORE DR,SIMI VALLEY,CA,93065,VENTURA,8059556e3,Emergency Department,OP_20,Door to diagnostic eval,18.0,408,NA,01/01/2015,12/31/2015,-118.77177,34.265003,california,846119,95912.0,11.5,0.1,Ventura County
050238,METHODIST HOSPITAL OF SOUTHERN CA,300 W HUNTINGTON DR,ARCADIA,CA,91006,LOSANGELES,6264454441.0,Emergency Department,OP_20,Door to diagnostic eval,39.0,409,NA,01/01/2015,12/31/2015,-118.02662,34.134057,california,10109436,1863025.0,18.7,0.2,Los Angeles County
050239,GLENDALE ADVENTIST MEDICAL CENTER,1509 E WILSON TERRACE,GLENDALE,CA,91206,LOSANGELES,8184098202.0,Emergency Department,OP_20,Door to diagnostic eval,28.0,384,NA,01/01/2015,12/31/2015,-118.22937,34.156674,california,10109436,1863025.0,18.7,0.2,Los Angeles County
050242,DOMINICAN HOSPITAL,1555 SOQUEL DRIVE,SANTA CRUZ,CA,95065,SANTACRUZ,8314627700.0,Emergency Department,OP_20,Door to diagnostic eval,14.0,404,NA,01/01/2015,12/31/2015,-121.98523,37.010322,california,271401,42076.0,16.1,0.2,Santa Cruz County
050243,DESERT REGIONAL MEDICAL CENTER,1150 NORTH INDIAN CANYON DRIVE,PALM SPRINGS,CA,92262,RIVERSIDE,7603236511.0,Emergency Department,OP_20,Door to diagnostic eval,30.0,399,NA,01/01/2015,12/31/2015,-116.54344,33.842984,california,2328329,392706.0,17.1,0.2,Riverside County
050245,ARROWHEAD REGIONAL MEDICAL CENTER,400 NORTH PEPPER AVENUE,COLTON,CA,92324,SANBERNARDINO,9095801e3,Emergency Department,OP_20,Door to diagnostic eval,29.0,279,NA,01/01/2015,12/31/2015,-117.31995,34.061931,california,2110386,422405.0,20.4,0.2,San Bernardino County
050248,NATIVIDAD MEDICAL CENTER,1441 CONSTITUTION BOULEVARD,SALINAS,CA,93906,MONTEREY,8317554195.0,Emergency Department,OP_20,Door to diagnostic eval,31.0,645,NA,01/01/2015,12/31/2015,-121.63997,36.709717,california,431293,70259.0,17.0,0.2,Monterey County
050254,MARSHALL MEDICAL CENTER,1100 MARSHALL WAY,PLACERVILLE,CA,95667,ELDORADO,5306221441.0,Emergency Department,OP_20,Door to diagnostic eval,43.0,395,NA,01/01/2015,12/31/2015,-120.79533,38.724682,california,183050,20715.0,11.4,0.1,El Dorado County
050257,GOOD SAMARITAN HOSPITAL,901 OLIVE DRIVE,BAKERSFIELD,CA,93308,KERN,6613994461.0,Emergency Department,OP_20,Door to diagnostic eval,NA,Not Available,5 - Results are not available for this reporting period.,01/01/2015,12/31/2015,-119.00896,35.487491,california,874190,206604.0,24.5,0.2,Kern County
050261,SIERRA VIEW MEDICAL CENTER,465 W PUTNAM AVE,PORTERVILLE,CA,93257,TULARE,5597841110.0,Emergency Department,OP_20,Door to diagnostic eval,49.0,612,NA,01/01/2015,12/31/2015,-119.01595,36.055121,california,457260,127305.0,28.1,0.3,Tulare County
050262,RONALD REAGAN U C L A MEDICAL CENTER,757 WESTWOOD PLAZA,LOS ANGELES,CA,90095,LOSANGELES,3108256301.0,Emergency Department,OP_20,Door to diagnostic eval,58.0,371,NA,01/01/2015,12/31/2015,-118.298662,33.786594,california,10109436,1863025.0,18.7,0.2,Los Angeles County
050272,REDLANDS COMMUNITY HOSPITAL,350 TERRACINA BLVD,REDLANDS,CA,92373,SANBERNARDINO,9093355500.0,Emergency Department,OP_20,Door to diagnostic eval,37.0,383,NA,01/01/2015,12/31/2015,-117.17305,34.034714,california,2110386,422405.0,20.4,0.2,San Bernardino County
050276,CONTRA COSTA REGIONAL MEDICAL CENTER,2500 ALHAMBRA AVENUE,MARTINEZ,CA,94553,CONTRACOSTA,9253705e3,Emergency Department,OP_20,Door to diagnostic eval,72.0,414,NA,01/01/2015,12/31/2015,-122.11501,37.998912,california,1111710,115466.0,10.5,0.1,Contra Costa County
050278,PROVIDENCE HOLY CROSS MEDICAL CENTER,15031 RINALDI ST,MISSION HILLS,CA,91346,LOSANGELES,8183658051.0,Emergency Department,OP_20,Door to diagnostic eval,32.0,384,NA,01/01/2015,12/31/2015,-118.298662,33.786594,california,10109436,1863025.0,18.7,0.2,Los Angeles County
050279,HI-DESERT MEDICAL CENTER,6601 WHITE FEATHER ROAD,JOSHUA TREE,CA,92252,SANBERNARDINO,7603663711.0,Emergency Department,OP_20,Door to diagnostic eval,21.0,441,NA,01/01/2015,12/31/2015,-116.29137,34.175926,california,2110386,422405.0,20.4,0.2,San Bernardino County
050280,MERCY MEDICAL CENTER REDDING,"2175 ROSALINE AVE, CLAIRMONT HGTS",REDDING,CA,96001,SHASTA,5302256102.0,Emergency Department,OP_20,Door to diagnostic eval,13.0,408,NA,01/01/2015,12/31/2015,-122.41519,40.56816,california,179747,26016.0,14.7,0.1,Shasta County
050281,ALHAMBRA HOSPITAL MEDICAL CENTER,100 S RAYMOND AVE,ALHAMBRA,CA,91801,LOSANGELES,6265701606.0,Emergency Department,OP_20,Door to diagnostic eval,23.0,529,NA,01/01/2015,12/31/2015,-118.127,34.090409,california,10109436,1863025.0,18.7,0.2,Los Angeles County
050283,VALLEYCARE MEDICAL CENTER,5555 WEST LAS POSITAS BOULEVARD,PLEASANTON,CA,94588,ALAMEDA,9254477e3,Emergency Department,OP_20,Door to diagnostic eval,21.0,425,NA,01/01/2015,12/31/2015,-121.89244,37.68973,california,1612850,197984.0,12.5,0.1,Alameda County
